,id,NAME,host id,host_identity_verified,host name,neighbourhood group,neighbourhood,lat,long,country,country code,can_book_w/out_host_approval,cancellation_policy,room type,Construction year,price,service fee,minimum nights,number of reviews,last review,reviews per month,review rate number,calculated host listings count,days_avaialable_next_365days,house_rules,license #,last review 
2,1002403,THE VILLAGE OF HARLEM....NEW YORK !,78829239556,,Elise,Manhattan,Harlem,40.80902,-73.9419,United States,US,True,flexible,Private room,2005.0,620.0,124.0,3.0,0.0,,,5.0,1.0,352.0,"I encourage you to use my kitchen, cooking and laundry facilities. There is no additional charge to use the washer/dryer in the basement.  No smoking, inside or outside. Come home as late as you want.  If you come home stumbling drunk, it's OK the first time. If you do it again, and you wake up me or the neighbors downstairs, we will be annoyed.  (Just so you know . . . )",,
128,1072030,Secluded Master Bedroom in Beautiful Huge Apt,44493053522,1.0,Dexter,Manhattan,Washington Heights,40.85879,-73.93128,United States,US,True,flexible,Private room,2010.0,736.0,147.0,15.0,36.0,8/17/2017,0.33,5.0,,266.0,No shoes and no smoking inside please. No smoking on the porches or around the house. The neighbors below us have a young child with severe asthma. ,,2017-08-17
174,1097436,West Inn 2 - East Village,56474290668,,Olivia,Manhattan,East Village,40.72518,-73.98034,United States,US,False,flexible,Private room,2020.0,185.0,37.0,99.0,84.0,6/23/2019,0.78,4.0,4.0,144.0,Smoking whatever is your preference is ok on the decks.  Please use ashtrays and dispose of debris.    Clean up after your pet but feel free to use the yard for bathroom activities.,,2019-06-23
226,1126156,PRIVATE Room on Historic Sugar Hill,46480721644,0.0,Allen,Manhattan,Harlem,40.8251,-73.94287,United States,US,True,flexible,Private room,2011.0,186.0,37.0,1.0,458.0,7/3/2019,4.58,4.0,2.0,338.0,- Animaux sur place (lapins) - respect du voisinage - Acces à la chambre des autres locataires interdit ,,2019-07-03
238,1132783,Private Room/bath Luxurious Harlem,6289503909,0.0,Payne,Manhattan,Harlem,40.81583,-73.94707,United States,US,False,flexible,Private room,,137.0,27.0,2.0,1.0,10/7/2018,0.11,4.0,1.0,173.0,smoking outside no pets quiet friendly people preferred,,2018-10-07
327,1181938,Cozy room in East Village with AC,28145791656,1.0,Chapman,Manhattan,East Village,40.72329,-73.98486,United States,US,False,flexible,Private room,2019.0,741.0,148.0,,182.0,7/4/2019,1.81,4.0,1.0,,This is a non smoking house.  Quiet hours are from 10pm until 8am.  Cars must be parked within fence so as not to block neighbors driveway.  One parking spot only per room. Please don't use the kitchen for cooking as cleanliness becomes difficult to maintain with the velocity of guests that we host.   Please place dirty dishes in the dishwasher unless it’s full of clean dishes!,,2019-07-04
360,1200164,"MANHATTAN Neat, Nice, Bright ROOM",81492867264,1.0,Phillips,Manhattan,Washington Heights,40.85295,-73.93361,United States,US,False,flexible,Private room,2021.0,50.0,10.0,2.0,136.0,6/17/2019,1.37,4.0,1.0,312.0,"Please be respectful of my things! I have a lot of stuff that I have collected over the years. Absolutely NO smoking. This is a really relaxing space and the neighbors are all really cool. -Pets are allowed -If you cook, please clean after yourself and make proper use of the garbage disposal.",,2019-06-17
445,1247110,Harlem/Hamilton Heights Cozy Room,58292705877,0.0,Sawyer,Manhattan,Harlem,40.82426,-73.9463,United States,US,True,flexible,Private room,2006.0,693.0,139.0,3.0,38.0,5/8/2018,0.42,4.0,3.0,145.0,- Please clean after yourself. Do not leave dishes and personal items in the common area such as the kitchen and Bathroom - Please do not bring guest over - Please don't play loud music,,2018-05-08
491,1272515,"Sunny, cozy room in Lower East Side",84473709196,1.0,Lucia,Manhattan,Lower East Side,40.71473,-73.98842,United States,US,False,flexible,Private room,2016.0,435.0,87.0,3.0,3.0,2/15/2016,0.04,4.0,2.0,9.0,,,2016-02-15
528,1292950,Sun-drenched East Village Penthouse,7807627593,1.0,Oliver,Manhattan,East Village,40.72566,-73.97748,United States,US,False,flexible,Private room,2010.0,152.0,30.0,3.0,81.0,3/28/2019,0.85,4.0,2.0,171.0,#NAME?,,2019-03-28
553,1306758,Comfortable. Spacious. Private Room.,45534966158,0.0,Ned,Manhattan,,40.713,-73.99752,United States,US,True,flexible,Private room,2019.0,613.0,123.0,,172.0,7/2/2019,1.84,5.0,2.0,63.0,Please be gentle with the furniture and appliances. Absolutely no smoking allowed. No parties please.,,2019-07-02
554,1307310,Modern Condo in Midtown,64786057639,1.0,Preston,Manhattan,Theater District,40.75895,-73.9883,United States,US,True,flexible,Private room,2021.0,704.0,141.0,,330.0,6/20/2019,7.14,4.0,1.0,420.0,"Please respect the place as if it was your own. No parties or crazy business.  Pets are not allowed.  Our apartment is also a non-smoking environment.  Our community is very quiet and we have a close relationship with our neighbors. We ask that you respect our neighbor’s privacy and monitor noise levels during the night time. If you need to smoke, please smoke outside the building and dispose of your cigarettes afterward.  We also ask that you keep the place relatively clean when you leave.",,2019-06-20
577,1320013,Your Haven in the Upper West Side,61656429942,1.0,Alan,Manhattan,Harlem,40.8078,-73.95208,United States,US,True,flexible,Private room,2010.0,145.0,29.0,7.0,19.0,6/3/2019,0.35,5.0,1.0,231.0,,,2019-06-03
593,1328850,Harlem/Manhattan Classic Apartment,81745064262,1.0,Heather,Manhattan,Harlem,40.80307,-73.95048,United States,US,True,flexible,Private room,2017.0,230.0,46.0,55.0,6.0,1/2/2015,0.08,5.0,2.0,,"-Please don't wear shoes inside the apartment (shoes should be removed in the area just inside the door to the apartment). -Please DO wear shoes while out in the courtyard. -Please keep the doors to the apartment locked at all times. -Please recycle -Please don't move/remove the portable A/C from the bedroom window.  -Please ensure that your bedroom windows are closed and securely locked when running the heat or A/C, before leaving the apartment and before going to bed. -Please ensure that the courtyard gate is closed and securely locked before leaving the apartment and before going to bed. -Please rinse off any dishes/flatware that you use and place them into the dishwasher after use. -Please help conserve energy (and my electricity bill!) by doing the following when you going to bed and when you are leaving: turn lights off, turn the thermostat down to between 60-65 degrees F (colder months), turn the A/C up to 75 degrees F or just turn it off entirely (warmer months). -Please NO smo",,2015-01-02
614,1340448,TURQUOISE: One-Bedroom Apt. in Soho,40808841464,0.0,Roberts,Manhattan,SoHo,40.72599,-74.00168,United States,US,False,flexible,Private room,2005.0,588.0,118.0,5.0,1.0,7/9/2013,0.01,4.0,1.0,392.0,,,2013-07-09
623,1345419,LARGE ARTSY Room w/ Loft Bed 4 DOOGLERS!,53354982147,0.0,Gibson,Manhattan,West Village,40.74,-74.00381,United States,US,False,flexible,Private room,2003.0,488.0,98.0,30.0,80.0,4/26/2019,0.86,5.0,2.0,16.0,,,2019-04-26
666,1369168,+Highly Satisfactory LES dwelling++,20138015423,0.0,Richards,Manhattan,Chinatown,40.7146,-73.991,United States,US,True,flexible,Private room,2006.0,792.0,158.0,4.0,151.0,6/16/2019,1.63,4.0,2.0,193.0,"You are our guests, we are so glad to have you here. For your safety and ours, we ask that you meet your guests off site.  Thus is a non-smoking building. No pets allowed.  Thank you",,2019-06-16
869,1481285,Harlem/Hamilton Heights Sunny Room,21666270746,0.0,Ellis,Manhattan,Harlem,40.82451,-73.94457,United States,US,False,flexible,Private room,2013.0,97.0,19.0,3.0,30.0,1/1/2019,0.35,5.0,3.0,164.0,"We're laid back and don't have too many rules! There is a porch outside if you need to smoke. We like to keep our home neat and hope you help us keep it how you find it!  We do ask that you do not bring guests back. This is a way for us to control who is in our home, and it means a lot to us.  As for noise, just be reasonable. If it's getting late, you know the drill :)",,2019-01-01
877,1485703,Share in NYC's trendy East Village,39369263064,0.0,Kelley,Manhattan,East Village,40.73171,-73.98717,United States,US,False,flexible,Private room,2005.0,357.0,71.0,3.0,136.0,7/1/2019,1.52,4.0,1.0,-6.0,"A list of house details, rules and local information will be provided upon arrival.",,2019-07-01
908,1502824,"HOSTING YOUR COZY,  ECLECTIC MILIEU FOR NYC VISIT",14950604609,1.0,Cole,Manhattan,Inwood,40.86658,-73.92558,United States,US,False,flexible,Private room,2019.0,151.0,30.0,7.0,46.0,5/25/2019,0.62,4.0,2.0,287.0,No Smoking and please clean dishes before departure.,,2019-05-25
923,1511109,TIMES SQUARE HOUSE!,40538094811,0.0,Williams,Manhattan,Hell's Kitchen,40.75782,-73.99349,United States,US,True,flexible,Private room,2016.0,481.0,96.0,5.0,110.0,5/26/2019,1.27,4.0,2.0,393.0,"1.  Check-in time is after 3 p.m. and check-out time is before 11 a.m.    2.  DO NOT TAKE KEYS WITH YOU! On the Departure Date, the keys shall be left on the kitchen counter.  The door to the Property MUST BE LOCKED BEHIND YOU using the key from the lockbox located inside the drawer to the foyer table.  The front door to the building can simply be closed behind you. 3. This is a NON SMOKING property. The smell of smoke in the property, including the common areas of the building, will result in loss of security deposit. 4. A Security Deposit of $250 is required for stays of less than one month.  For monthly stays a Security Deposit of $750 is required. The Security Deposit is fully refundable within 48 hours of departure, provided the following provisions are met:  a.    No damage is done to home or its contents, beyond normal wear and tear.  b.    No charges are incurred due to contraband, pets of Guest, or collection of rents or services rendered during the stay or any other act or om",,2019-05-26
937,1518841,Cute Private room in Upper East Side #14,75844192690,1.0,Hamilton,Manhattan,Upper East Side,40.78164,-73.94717,United States,US,True,flexible,Private room,,741.0,148.0,3.0,5.0,6/29/2019,1.47,4.0,9.0,107.0,,,2019-06-29
991,1548665,Light Superhosted Chill LES Apt,87889290092,1.0,Sullivan,Manhattan,Lower East Side,40.72123,-73.98996,United States,US,True,flexible,Private room,2017.0,290.0,58.0,10.0,67.0,5/16/2019,0.77,4.0,1.0,369.0,,,2019-05-16
1036,1573519,"Very clean, quiet bedroom available",61946445242,1.0,Elaine,Manhattan,Washington Heights,40.83559,-73.94095,United States,US,False,flexible,Private room,2021.0,489.0,98.0,2.0,13.0,1/31/2017,0.15,4.0,1.0,220.0,This is the house where I live all year around; please be respectful of the place as if it was yours and leave it as you found it upon arrival.,,2017-01-31
1232,1681770,Comfortable Private Room in Upper Manhattan 2BR,33944805792,0.0,Kim,Manhattan,East Harlem,40.80762,-73.94017,United States,US,True,flexible,Private room,2004.0,534.0,107.0,2.0,16.0,7/4/2018,0.62,4.0,1.0,303.0,"For instant book, only 4 or less guests. Otherwise send me a message, and we can chat about it. Smoking allowed on balcony or roof deck.",,2018-07-04
1411,1780631,1 BR - Garden - Broadway?,31741001537,0.0,Ken,Manhattan,Upper East Side,40.77975,-73.94977,United States,US,True,flexible,Private room,2016.0,59.0,12.0,1.0,160.0,6/27/2019,1.9,5.0,1.0,121.0,"Maintain cleanliness .  Please carry all the necessary items that is required for your stay , host cannot provide any of it . Also can accomodate females who are veg and eggatarians only",,2019-06-27
1429,1790573,Cozy E. Harlem Brownstone PH,14337990816,0.0,Diego,Manhattan,East Harlem,40.79512,-73.93182,United States,US,False,flexible,Private room,2007.0,639.0,128.0,2.0,129.0,4/6/2019,1.56,4.0,2.0,211.0,No smoking No children under the age of 18 No animals No loud parties or people beyond those included in the reservation No late night check-ins,,2019-04-06
1453,1803828,"Comfortable, clean & quiet in EV",17950404086,0.0,Casper,Manhattan,Gramercy,40.73337,-73.984,United States,US,False,flexible,Private room,2009.0,686.0,137.0,1.0,323.0,6/20/2019,3.89,4.0,1.0,181.0,"NO smoking, no pets, all guests must be disclosed. ",,2019-06-20
1806,1998790,Comfortable Room in UES - NYC,13689707671,0.0,Jhon,Manhattan,East Harlem,40.78728,-73.94579,United States,US,True,flexible,Private room,2007.0,645.0,129.0,4.0,150.0,6/23/2019,1.88,4.0,1.0,277.0,,,2019-06-23
1838,2016463,MANHATTAN CONVENIENT 2 CLOSET ROOM,9332090390,1.0,Ale,Manhattan,Harlem,40.82173,-73.95548,United States,US,True,flexible,Private room,2006.0,194.0,39.0,2.0,33.0,5/28/2019,0.46,4.0,4.0,216.0,"PLEASE READ ALL HOUSE RULES TRASH can only go out  BEFORE  8 AM or the night before trash days ONLY.  Trash days are Monday and Friday ONLY.  Trash must only be placed outside in a black or white trash bag.  Recycling can be placed outside on Fridays in a clear bag or in a box.  DO NOT PUT OUT TRASH ANY OTHER DAYS!  A $100 fine will occur if you put trash out early.  DO NOT have any mail or packages shipped to you while you are staying. Please realize that you are in an apartment and need to be very considerate of the people who live in the units around you.  Beacon Hill is a quiet, professional neighborhood with working people.  Please respect that they do not appreciate loud neighbors. Keep the noise level to a minimum. Do NOT play loud music.  Try not to make too much noise after 10pm, and please do not bring any other guests who are not on the reservation back to the apartment unless you truly trust them.  We realize we cannot stop people from bringing back a ""friend"" but remember ",,2019-05-28
1849,2022539,ON HIGHLINE! Private room & bath,54901841722,0.0,Arthur,Manhattan,Chelsea,40.75284,-74.00138,United States,US,False,flexible,Private room,2021.0,221.0,44.0,2.0,251.0,7/3/2019,3.15,5.0,1.0,322.0,,,2019-07-03
2056,2136865,Artsy Bedroom/Office in WaHi,85621250212,1.0,Michelle,Manhattan,Washington Heights,40.84408,-73.93675,United States,US,False,flexible,Private room,2004.0,608.0,122.0,1.0,120.0,6/21/2019,1.89,4.0,1.0,117.0,,,2019-06-21
2078,2149015,Hell's Kitchen Hideaway - Private Entrance,96384578651,0.0,Nick & Jim,Manhattan,Hell's Kitchen,40.763,-73.98911,United States,US,False,flexible,Private room,2020.0,727.0,145.0,2.0,100.0,6/24/2019,1.31,4.0,1.0,283.0,"Due at move-in: $150 cleaning fee, $100 move-in fee ($250 fee included with Airbnb) $1000 refundable security deposit. NO PETS & NO SMOKING Move-in: after noon Move-out: 11am",,2019-06-24
2093,2157300,East Village Gay Friendly Dbl Room,53069174711,0.0,Seth,Manhattan,East Village,40.72836,-73.98163,United States,US,False,flexible,Private room,2010.0,560.0,112.0,1.0,414.0,6/22/2019,5.39,4.0,2.0,240.0,,,2019-06-22
2117,2170555,Sunny room with private bathroom,63514577476,0.0,Liya,Manhattan,Harlem,40.80667,-73.95562,United States,US,False,flexible,Private room,2014.0,201.0,40.0,2.0,53.0,6/23/2019,0.7,4.0,1.0,82.0,"Please remember that this is a residential building. The building rules, apartment occupancy restrictions and the year-round tenants must be respected.",,2019-06-23
2219,2226890,Small room with private bath in New York,61979811836,1.0,Colin,Manhattan,Harlem,40.82943,-73.94728,United States,US,True,flexible,Private room,2019.0,54.0,11.0,2.0,18.0,6/16/2019,3.05,4.0,2.0,38.0,#NAME?,,2019-06-16
2255,2246773,Relaxed in New York,61305011872,1.0,Eo,Manhattan,Harlem,40.825,-73.94132,United States,US,False,flexible,Private room,2012.0,302.0,60.0,3.0,145.0,6/9/2019,1.97,5.0,1.0,401.0,,,2019-06-09
2383,2317467,Huge Private Sunny Bedroom in NYC,47241237769,1.0,Lori,Manhattan,Washington Heights,40.8532,-73.93225,United States,US,False,flexible,Private room,2008.0,629.0,126.0,56.0,0.0,,,4.0,1.0,221.0,,,
2410,2332379,Sexy Bedroom near Central Park!,74131874924,0.0,Ari,Manhattan,East Harlem,40.78943,-73.94726,United States,US,False,flexible,Private room,2006.0,767.0,153.0,1.0,38.0,5/4/2019,0.6,5.0,4.0,355.0,"Please leave the apartment neat as you found it.  Put your sheets and towels in the hamper in the guest closet. If you've prepared food and there are leftovers, be sure to place them in the trash. Better yet, bring the trash and recyclable items downstairs and put them into the appropriate containers in the driveway out back.  Thank you, Deborah",,2019-05-04
2428,2342320,Beautiful East Village Apt,96621025844,1.0,Kevin,Manhattan,East Village,40.72499,-73.98127,United States,US,True,flexible,Private room,2013.0,239.0,48.0,3.0,14.0,5/17/2019,0.24,4.0,1.0,136.0,"Please remember that this is a residential building. The building rules, apartment occupancy restrictions and the year-round tenants must be respected.  Parties, pets and smoking are not allowed under any circumstances and incur significant fees.",,2019-05-17
2502,2383191,Your private bedroom in the Upper East Side!,58835593462,1.0,Sullivan,Manhattan,East Harlem,40.78747,-73.95276,United States,US,False,flexible,Private room,2009.0,304.0,61.0,3.0,18.0,5/4/2019,0.25,5.0,1.0,396.0,I ask to be respectful to neighbors.  To leave everything as it was when arrived.  Make yourself at home.,,2019-05-04
2528,2397550,beautiful ROOM in a DREAM APARTMENT,84928025818,1.0,Michel Fabrice,Manhattan,Midtown,40.75728,-73.97152,United States,US,True,flexible,Private room,2008.0,637.0,127.0,1.0,49.0,12/30/2017,0.91,5.0,1.0,319.0,,,2017-12-30
2536,2401969,A real home on the UWS.,51254717715,0.0,Deborah,Manhattan,Upper West Side,40.80274,-73.96459,United States,US,False,flexible,Private room,2005.0,548.0,110.0,1.0,28.0,5/23/2019,0.51,4.0,1.0,377.0,"Please keep shoes off while inside. Food should be kept in the kitchen/dining area. Be mindful of our great neighbors and keep noise to a reasonable level. No pets or smoking, please!",,2019-05-23
2672,2477082,Comfy room in vibrant East Village,91112077983,0.0,Brooke & Terry,Manhattan,East Village,40.72418,-73.98283,United States,US,True,flexible,Private room,2019.0,231.0,46.0,14.0,172.0,5/25/2019,2.39,4.0,1.0,0.0,"No smoking, keep clean and respect property",,2019-05-25
2682,2482605,Private bedroom + private bathroom,45127608606,0.0,Brian,Manhattan,Inwood,40.86457,-73.92749,United States,US,True,flexible,Private room,2017.0,479.0,96.0,2.0,7.0,12/7/2015,0.15,4.0,1.0,275.0,,,2015-12-07
2718,2502487,ALL YOU NEED!! HK/TIME SQ./THEATER (READ REVIEWS),89787582436,0.0,Ty,Manhattan,Theater District,40.76199,-73.98627,United States,US,False,flexible,Private room,2014.0,681.0,136.0,2.0,33.0,4/10/2019,0.47,4.0,2.0,223.0,"This apartment is located on a third floor, no elevator. Guest must be considered and respectful with the noise level. No stumping or running please.",,2019-04-10
2899,2602454,West Village townhouse private suite incl bath,68203670347,1.0,Ann,Manhattan,West Village,40.73089,-74.00302,United States,US,False,flexible,Private room,2020.0,437.0,87.0,1.0,203.0,7/1/2019,2.87,5.0,2.0,332.0,"No smoking  and  Please respect each others space . When leaving out your space please dress respectful to other guess  though out the house . ( example , if you are in the house please wear a Robe of some sort .",,2019-07-01
2921,2614604,Clean room near Columbia Univ,6137207598,1.0,Zee,Manhattan,Morningside Heights,40.81326,-73.96181,United States,US,False,flexible,Private room,2003.0,363.0,73.0,1.0,0.0,,,5.0,1.0,74.0,"All guests are expected to be respectful and mindful of shared spaces, including bathroom, kitchen, and TV room. This includes cleaning up after you and your group in all shared areas. Absolutely no smoking. Guests arriving or returning after 10:00pm must maintain a courteous volume in consideration of other guests. Pets are welcome! If you have a pet and use the backyard, please clean up after your pet.",,
2965,2638906,Midtwn E BEST LOCATION Priv Twin Rm 1 Loving Cat,84205630217,1.0,Lynn,Manhattan,Murray Hill,40.7474,-73.97847,United States,US,False,flexible,Private room,2022.0,116.0,23.0,1.0,135.0,12/12/2018,1.93,5.0,1.0,112.0,"We ask that you treat everything here with care, as it is our home. NO SMOKING IS ALLOWED IN THE HOUSE OR ANYWHERE ON OUR PROPERTY.  If anything is damaged please let us know immediately.",,2018-12-12
2971,2642219,"Sunny, Large (Queen Bed) Private room in 2Bedroom",96875294127,0.0,Helga,Manhattan,East Harlem,40.79377,-73.9361,United States,US,False,flexible,Private room,2004.0,365.0,73.0,14.0,30.0,6/4/2019,0.43,5.0,2.0,216.0,"The golden rule is my mantra- treat others (and their homes) as you'd like to be treated. This is a three unit building, please be respectful of neighbors and observe quiet hours between midnight and 6 a.m.  No smoking or pets permitted.",,2019-06-04
3019,2668730,Nice cozy bedroom with cool views in Hell's kit..!,16814284115,0.0,Anthony,Manhattan,Hell's Kitchen,40.76421,-73.99115,United States,US,True,flexible,Private room,2020.0,364.0,73.0,5.0,62.0,6/23/2019,1.72,4.0,2.0,231.0,"• Check-in time is 3PM. • Check-out time is 11:00AM. • No parties or events • Not suitable for pets • No smoking No smoking, no drugs, no parties and please, no visiting pets or unannounced visitors. Please lock up door when you go out, and during the heating season, turn down the heat. If you are new to Airbnb, the idea is that I’m not renting a room, but rather sharing my home. I live and work here, and enjoy meeting new people. It's like having old friends visit, not like a hotel. You are welcome to make yourself at home in the common living areas and to use the kitchen, but please leave everything as clean and put away as you have found it. As we will be sharing a bathroom, I appreciate your tidying up and keeping personal items in your room. The cat is not allowed outdoors – he can be sneaky so please don’t leave doors open and keep an eye out for her. You are welcome to the kitchen (and common areas), thank you for cleaning your dishes after using them.   I am environmentally fri",,2019-06-23
3151,2741633,"PRIVATE Room, located on Central MANHATTAN***",51637858755,1.0,Denise,Manhattan,Upper East Side,40.7789,-73.95311,United States,US,True,flexible,Private room,2018.0,436.0,87.0,3.0,134.0,6/18/2019,1.96,5.0,1.0,12.0,"I expect guests to treat my home as if it were their own. Be neat and clean, considerate, and respectful of both my home and my neighbors. There is NO additional guests permitted! There is NO smoking in the home, NO pets, NO drugs!!! NO food in the bedroom!! Shoes are to be take off upon entry!!",,2019-06-18
3207,2772562,"Space, elegance, and comfort - Room",16102778429,1.0,Arlene,Manhattan,East Harlem,40.80029,-73.94294,United States,US,True,flexible,Private room,2006.0,166.0,33.0,3.0,7.0,2/27/2016,0.11,5.0,1.0,333.0,,,2016-02-27
3356,2854855,"Spacious haven near Riverside park, subway, and CU",88731683522,0.0,Nicole,Manhattan,Morningside Heights,40.81615,-73.96156,United States,US,False,flexible,Private room,2020.0,294.0,59.0,2.0,19.0,1/8/2018,0.79,4.0,2.0,225.0,,,2018-01-08
3529,2950403,"Large Bright Room, East Village Apt",61812537776,1.0,Seth,Manhattan,East Village,40.72859,-73.98957,United States,US,True,flexible,Private room,2004.0,596.0,119.0,1.0,0.0,,,5.0,1.0,363.0,I prefer those person Who would rent my room over 15 days once(Price will be lower) No smoking inside Cleaning my room at least one time in 3 days No other inappropriate actions on bed Thank you so much,,
3592,2985198,"Bright, Lovely, Private Room in Midtown Manhattan",41417114966,1.0,Lydia,Manhattan,Midtown,40.75667,-73.96464,United States,US,True,flexible,Private room,2022.0,433.0,87.0,3.0,177.0,6/28/2019,2.69,4.0,1.0,317.0,,,2019-06-28
3621,3001214,Home Sweet Home in Historic Harlem-Riverside Drive,66566639126,1.0,Logan,Manhattan,Harlem,40.82252,-73.94462,United States,US,False,flexible,Private room,2012.0,280.0,56.0,2.0,13.0,8/17/2017,0.45,5.0,1.0,47.0,"House Guidelines for our BnB We are delighted to welcome you.  Check in Sun – Thurs by 8PM and Fri, Sat by 9pm. Please bear in mind that this is not a hotel but our home and we are opening it to you.  We will do our utmost to make your stay enjoyable and fun.  We ask that you take care to respect our home and its appearance.  Thank you.  Marilyn and Alan 1.ROOMS - The bedroom is yours for the duration of your stay.  Be sure to let us know if you need something.  Please keep it neat and tidy and take advantage of the closet and bureau for your belongings.  We do ask that you turn off lights, air conditioner, fan, etc. when you are not in the room. Thank you. 2.LIGHTS – Please, too, remember to turn off lights on the stairway when returning.   3.KEYS - 2 house keys are provided - Replacement cost is $15 each 4.PARKING – Parking is available on street at all times.   (website hidden) – When the weather is inclement please remove shoes.   6.TOILETRIES - If you need them we can provide basi",,2017-08-17
3655,3019993,Bedroom with Private Bathroom,54120704394,1.0,Maureen And Josiah,Manhattan,Washington Heights,40.84119,-73.939,United States,US,True,flexible,Private room,2017.0,582.0,116.0,1.0,271.0,6/23/2019,4.32,4.0,1.0,95.0,,,2019-06-23
3670,3028277,"CENTRAL PARK, NYC APT",46141906002,0.0,Mena,Manhattan,Upper West Side,40.78616,-73.97348,United States,US,True,flexible,Private room,2006.0,252.0,50.0,2.0,121.0,6/23/2019,2.06,5.0,2.0,301.0,Rules are to respect everyone in the home and keep the place clean as is found.,,2019-06-23
3829,3116093,CLEAN LES HOME,76470520253,1.0,Chris,Manhattan,Chinatown,40.71627,-73.99404,United States,US,False,flexible,Private room,2011.0,663.0,133.0,1.0,4.0,2/22/2015,0.06,5.0,1.0,258.0,"Relax and enjoy. Kitchen fully equipped. Linens and towels supplied.  No smoking. No candles. And, sorry, but this is a place for one adult or a couple. Not suitable for kids.",,2015-02-22
3831,3117197,Hamilton Heights/Harlem Private Bedroom with Roof,79199376574,0.0,Tim,Manhattan,Harlem,40.82016,-73.94559,United States,US,True,flexible,Private room,2008.0,409.0,82.0,3.0,1.0,5/16/2019,0.56,4.0,1.0,204.0,"Please review the terms of this rental agreement. Enclosed is our rental contract and rules. Please read carefully. If you have any questions please don't hesitate to contact me before submitting your payment. By submitting your deposit you agree to these terms, and the fee and dates outlined in the booking email. Please make sure that you have provided us with a cell phone for the primary contact as well as the EXACT number of occupants. Our rates are based on 2 person occupancy. We charge $25 per person, per night for additional persons.  The unit is located at 256 Amory St. #1, Jamaica Plain, MA If you need directions don’t hesitate to call Christine at (PHONE NUMBER HIDDEN). Your confirmation is as follows: Check-in: after 3pm EST (No early check-in please)  Check-out: by 10 am EST (No late check-outs please) Pre-arrival info will be emailed to you before check in. By submitting my deposit, I agree to all terms and conditions of this agreement RENTAL RULES AND REGULATIONS  Arthouse",,2019-05-16
3902,3156411,In the heart of the East Village,90071567880,1.0,Anoop,Manhattan,East Village,40.72916,-73.98022,United States,US,False,flexible,Private room,2014.0,204.0,41.0,3.0,13.0,6/26/2017,0.34,5.0,1.0,159.0,,,2017-06-26
3940,3177398,Quiet & private room in luxury doorman bldg,2131951518,1.0,Kaori,Manhattan,Harlem,40.82349,-73.94193,United States,US,True,flexible,Private room,2019.0,311.0,62.0,3.0,3.0,10/3/2017,0.05,5.0,2.0,377.0,"Please treat the home as you would your own, and treat your hosts as you would like to be treated!",,2017-10-03
4149,3292829,Great Room In Mid Town New York NYC,1348360999,0.0,Anthony,Manhattan,Midtown,40.76419,-73.98018,United States,US,True,flexible,Private room,2006.0,305.0,61.0,7.0,49.0,6/13/2019,0.82,5.0,3.0,106.0,"Check in     4 PM  Check out  11 AM No Smoking, No pets Please No parties and quiet hours after 9 pm Clean dishes or leave them in the dishwasher!  We are not responsible for your belongings. Thank You!",,2019-06-13
4194,3317682,Convenient Private Room in Spanish Harlem (SpaHa),63741721619,1.0,Zachary,Manhattan,East Harlem,40.79121,-73.94793,United States,US,True,flexible,Private room,2005.0,682.0,136.0,2.0,1.0,4/17/2014,0.02,4.0,1.0,420.0,"Please remember that this is a residential building. The building rules, apartment occupancy restrictions and the year-round tenants must be respected.",,2014-04-17
4208,3325414,"PRIVATE, GIGANTIC full floor loft w/priv bath",30863227122,0.0,Sandy,Manhattan,Harlem,40.81677,-73.94371,United States,US,False,flexible,Private room,2004.0,791.0,158.0,3.0,89.0,5/28/2019,1.41,5.0,1.0,181.0,,,2019-05-28
4223,3333699,East Village Manhattan NYC Bedroom!,52461690288,0.0,Chris,Manhattan,East Village,40.72278,-73.98497,United States,US,False,flexible,Private room,2016.0,436.0,87.0,3.0,38.0,6/17/2019,0.6,4.0,3.0,122.0,Treat this quaint apartment like it's your own.,,2019-06-17
4247,3346954,East Village loft; authentic NY.,40757555416,0.0,Leo,Manhattan,East Village,40.72266,-73.98337,United States,US,False,flexible,Private room,2016.0,474.0,95.0,3.0,0.0,,,4.0,1.0,166.0,,,
4283,3366837,Charming Bedroom in renovated Apart,76362108972,0.0,Chriis,Manhattan,East Harlem,40.78833,-73.94888,United States,US,True,flexible,Private room,2019.0,659.0,132.0,1.0,0.0,,,4.0,1.0,306.0,"WHEN BOOKING, PLEASE PROVIDE THE FOLLOWING IN YOUR MESSAGE to me:  - 1. Total number of guests (adults, children, babies)? Are there any elderly or children under 18? If so, what are their ages?  - 2. Arrival Date AND Time of Check In? (Check In between 2 pm and 9 pm with some leniency)  - 3. Departure Date (Check out before 12 pm/noon ideally)  - 4. Please tell me a little about yourselves and the purpose of your trip. - 5. What Other Needs or Special Requests or Extra Options (please read below for additional options and possible related additional fees).  ------  PLEASE NOTE THE FOLLOWING BEFORE REQUESTING A BOOKING:  * I will reply as soon as possible to let you know if my apartment will be available for ALL your needs.  - 1. We are happy to host Friendly, Neat, Low-Maintainence Adults & Well-Behaved Children.  ---- All cookware and utensils in the kitchen are at your disposal, but please ask about food before eating as this is my home and I may be saving something. There will be w",,
4295,3373465,☀️Sunny Central Park North☀️,73291676651,0.0,Chad,Manhattan,Harlem,40.80005,-73.95212,United States,US,False,flexible,Private room,2019.0,165.0,33.0,3.0,104.0,6/23/2019,1.65,4.0,1.0,21.0,,,2019-06-23
4391,3426485,Spacious Junior 1BR Apt in USQ/Flatiron,94177329240,1.0,Allie,Manhattan,Chelsea,40.73726,-73.99399,United States,US,False,flexible,Private room,2021.0,167.0,33.0,1.0,34.0,7/1/2019,0.68,5.0,1.0,103.0,,,2019-07-01
4398,3430351,"Priv Room in Artists UES Apt, Central Park & Train",92540576370,1.0,Alesandra,Manhattan,East Harlem,40.79285,-73.94482,United States,US,False,flexible,Private room,2015.0,691.0,138.0,1.0,270.0,6/17/2019,4.5,4.0,1.0,201.0,"No street shoes in the house, please, but especially not in the bedrooms. Kitchen privileges vary and can be negotiated with length of stay but for shorter stays the kitchen can be used for food storage, occasional light meal prep, eating, and tea and snacks. Check-in and check-out times are flexible all days except Sunday where check-out is by 11 a.m.   Smokers are welcome to smoke outside.",,2019-06-17
4460,3464594,Fully Furnished Luk Room including Air Conditiner!,97915682327,0.0,Gen,Manhattan,Washington Heights,40.83568,-73.94457,United States,US,False,flexible,Private room,2012.0,730.0,146.0,31.0,2.0,6/16/2019,0.15,5.0,6.0,295.0,"Shoes off apartment (slippers available to guests) No smoking of any substance on the property Respectful Friendly Quiet Leave things as they were found, clean after yourself  No dishes left in the sink  Please use green cups, bowls, utensils and plates and  Store dry foods in 2nd tall pantry cabinet for your personal food storage and store food in the fridge on the 2nd row Guests may not have additional guests without clearing them with me first",,2019-06-16
4487,3479506,Times Square Unique Studio,53416302673,0.0,Samira,Manhattan,Hell's Kitchen,40.75771,-73.99407,United States,US,False,flexible,Private room,2012.0,525.0,105.0,1.0,257.0,6/13/2019,4.2,5.0,1.0,192.0,,,2019-06-13
4595,3539155,A single room  that converts  with bathroom,62961939237,0.0,Anthony,Manhattan,Midtown,40.76429,-73.98043,United States,US,True,flexible,Private room,2003.0,773.0,155.0,7.0,17.0,7/1/2019,0.29,5.0,3.0,14.0,"I expect my home to be treated as any mature adult would treat the home of a respected friend or family member. While the space is to be enjoyed-- there are artworks, antiques, books, electronics and more that need be viewed/handled thoughtfully (i.e. use a coaster when putting a glass on wood tables, etc.) The fireplace, outdoor grill, and washer/dryer are not to be used.  There is no smoking allowed (this includes on the back deck).  Any special check-in and check-out times should be discussed with host. All efforts will be made to accommodate visitor travel schedules.",,2019-07-01
4605,3544678,SOHO Studio Best Location,304872816,1.0,Carl,Manhattan,Nolita,40.72243,-73.99655,United States,US,True,flexible,Private room,2017.0,620.0,124.0,6.0,3.0,7/11/2015,0.05,5.0,1.0,209.0,"Act like you own the place... which is to say, make yourself at home but also treat it like you would if you owned it. This is our home so we trust and hope that you will treat it like yours.",,2015-07-11
4787,3645196,Panoramic view of Upper Manhattan!,87378533561,0.0,Ivan,Manhattan,Washington Heights,40.83367,-73.94298,United States,US,True,flexible,Private room,2003.0,636.0,127.0,3.0,18.0,5/4/2019,0.29,4.0,4.0,78.0,No smoking!  Please be respectful of our neighbors and keep noise to a minimum.  Voices and music outside carry far.,,2019-05-04
4912,3714234,Beautiful Room in Park-Side Apt,62583793750,1.0,Marissa,Manhattan,Inwood,40.86176,-73.93082,United States,US,True,flexible,Private room,2015.0,631.0,126.0,2.0,50.0,5/21/2017,0.83,4.0,1.0,309.0,The apartment is non-smoking and pets are not allowed.,,2017-05-21
4929,3723623,Ensuite in Duplex Brownstone with Private Terrace!,21549848071,1.0,Andrew,Manhattan,Harlem,40.82435,-73.94507,United States,US,False,flexible,Private room,2012.0,283.0,57.0,2.0,28.0,4/26/2019,0.82,5.0,2.0,153.0,,,2019-04-26
4940,3729698,Sunny room in East Village!,72314837871,1.0,Kent,Manhattan,East Village,40.72673,-73.98004,United States,US,True,flexible,Private room,2021.0,226.0,45.0,1.0,191.0,5/27/2019,3.17,5.0,1.0,217.0,Please clean up after yourselves when leaving.  Minimal noise is appreciated given the close neighbors. Thanks!,,2019-05-27
4954,3737430,"Bright, big, BEAUTIFUL room in renovated apt",92801255805,0.0,Robert,Manhattan,Harlem,40.81813,-73.9398,United States,US,False,flexible,Private room,2005.0,287.0,57.0,5.0,5.0,6/30/2018,0.1,5.0,1.0,101.0,,,2018-06-30
5040,3784928,Private bedroom apartment 4B/2,54809265360,1.0,Veronique Camille,Manhattan,East Harlem,40.7942,-73.94136,United States,US,False,flexible,Private room,2020.0,252.0,50.0,21.0,2.0,7/4/2017,0.04,4.0,8.0,352.0,Please be respectful of other building residents - keeping evening noise to a minimum.,,2017-07-04
5070,3801497,Sunny room in Alphabet City,35761514788,1.0,Andra,Manhattan,East Village,40.72135,-73.98,United States,US,False,flexible,Private room,2011.0,217.0,43.0,5.0,12.0,9/6/2016,0.2,4.0,1.0,424.0,No Smoking Indoors,,2016-09-06
5139,3839606,Your NYC home in the Upper East Side!,80338476797,0.0,Jime,Manhattan,Upper East Side,40.77579,-73.9557,United States,US,True,flexible,Private room,2016.0,476.0,95.0,3.0,61.0,5/29/2019,1.01,5.0,5.0,14.0,#NAME?,,2019-05-29
5167,3855070,Manhattan Apartment- low rate,28259399059,0.0,Jasmine,Manhattan,Harlem,40.80257,-73.9548,United States,US,False,flexible,Private room,2016.0,262.0,52.0,1.0,0.0,,,5.0,1.0,245.0,"4 nights minimum stay, no smoking or pets.",,
5201,3873848,Central Park West & Columbia U: Comfy Private Room,68453877856,1.0,Ms. Yvonne,Manhattan,Morningside Heights,40.80645,-73.95804,United States,US,True,flexible,Private room,2016.0,227.0,45.0,5.0,25.0,1/2/2019,0.44,5.0,1.0,90.0,,,2019-01-02
5449,4010819,Huge space and MILLION DOLLAR VIEWs,52443983965,1.0,Kevin,Manhattan,Theater District,40.75848,-73.98414,United States,US,True,flexible,Private room,2013.0,528.0,106.0,4.0,177.0,6/21/2019,3.01,4.0,1.0,342.0,No Smoking No Pets,,2019-06-21
5630,4110785,A room with a window,55611779096,1.0,Alexa,Manhattan,East Village,40.73131,-73.98321,United States,US,True,flexible,Private room,2019.0,725.0,145.0,2.0,0.0,,,4.0,1.0,280.0,Keep the apartment clean and damage free please.,,
5664,4129563,Sunny Bedroom in quirky apartment,91121638678,1.0,Elizabeth,Manhattan,Murray Hill,40.74713,-73.98075,United States,US,False,flexible,Private room,2003.0,54.0,11.0,2.0,8.0,6/7/2019,0.43,4.0,1.0,30.0,"Please remember that this is a residential building. The building rules, apartment occupancy restrictions, and the year-round tenants must be respected.  There is no smoking allowed in the apartments and significant fees will take place if occurs. ",,2019-06-07
5703,4151103,Location is Everything. And Quiet Too!,89306310617,1.0,Niko,Manhattan,Hell's Kitchen,40.76444,-73.98965,United States,US,True,flexible,Private room,2021.0,92.0,18.0,1.0,394.0,6/30/2019,6.79,4.0,1.0,238.0,"No smoking, pets or parties.",,2019-06-30
5854,4234500,Private bedroom in Hell's Kitchen,89503183578,0.0,Joseph  &  Hector,Manhattan,Upper West Side,40.76845,-73.9832,United States,US,False,flexible,Private room,2016.0,257.0,51.0,3.0,126.0,7/1/2019,2.92,5.0,1.0,179.0,#NAME?,,2019-07-01
5940,4281998,Room For Rent,98327171500,0.0,Cynthia,Manhattan,Harlem,40.80733,-73.95642,United States,US,True,flexible,Private room,2003.0,255.0,51.0,7.0,3.0,7/6/2019,0.22,5.0,2.0,40.0,"House Rules 1. All bookings made at least a week before check in are fully refundable if cancelled within 24 hours of booking. After this, you will receive a 50% refund if you cancel at least 7 days before the start of your trip. 2. Check-in time is any time after 4 pm local time. If the unit is ready earlier, we’ll let you know. Check-out is normally 11 am local time, but we’d be happy to extend it as long as we don’t have a cleaning scheduled. Just let us know.  3. All bookings require a security deposit of at least $300. 4. For security measures we require all guests to provide proof of identification through ID verification on our own website. In order to check in, we'll need a photo of your ID.  5. Don’t let $300 go up in smoke. There's no smoking allowed in any Flatbook and a $300 fine for breaking this rule.  6. Unfortunately we don’t allow pets in most of our apartments. 7. Unless you’re staying in one of our specialty apartments, we don’t allow parties or excessive noise. 8. I",,2019-07-06
5948,4286416,Private Room for Rent,8057718627,0.0,Michael,Manhattan,East Harlem,40.79008,-73.94766,United States,US,True,flexible,Private room,,483.0,97.0,4.0,1.0,11/27/2015,0.02,4.0,1.0,392.0,Not too loud. No 'house rules' necessary as long as general nice manners are followed.,,2015-11-27
6032,4332810,New year in New York City,57659323838,1.0,Howard,Manhattan,Midtown,40.76564,-73.98013,United States,US,True,flexible,Private room,2016.0,609.0,122.0,7.0,1.0,1/2/2015,0.02,4.0,3.0,71.0,"No shoes in the apartment, please",,2015-01-02
6128,4385830,Warm and Cozy Room in Harlem,80040872649,0.0,Fallon,Manhattan,Harlem,40.80743,-73.94256,United States,US,True,flexible,Private room,2015.0,493.0,99.0,3.0,211.0,7/5/2019,3.72,4.0,1.0,392.0,"Regular tenant requirements, no noise, do not disturb neighbors.",,2019-07-05
6129,4386383,King size bed -Private bdrm,33246752184,1.0,Niraj,Manhattan,Gramercy,40.7373,-73.98392,United States,US,False,flexible,Private room,2013.0,692.0,138.0,1.0,4.0,9/16/2015,0.08,5.0,1.0,51.0,,,2015-09-16
6183,4416207,"SPACIOUS,  2 bedrooms, sleeps 4, private bath",26446993025,0.0,Victoria,Manhattan,Inwood,40.86644,-73.92677,United States,US,False,flexible,Private room,2020.0,353.0,71.0,3.0,18.0,10/29/2018,0.35,4.0,2.0,123.0,"House Rules 1. All bookings made at least a week before check in are fully refundable if cancelled within 24 hours of booking. After this, you will receive a 50% refund if you cancel at least 7 days before the start of your trip. 2. Check-in time is any time after 4 pm local time. If the unit is ready earlier, we’ll let you know. Check-out is normally 11 am local time, but we’d be happy to extend it as long as we don’t have a cleaning scheduled. Just let us know.  3. All bookings require a security deposit of at least $300. 4. For security measures we require all guests to provide proof of identification through ID verification on our own website. In order to check in, we'll need a photo of your ID.  5. Don’t let $300 go up in smoke. There's no smoking allowed in any Flatbook and a $300 fine for breaking this rule.  6. Unfortunately we don’t allow pets in most of our apartments. 7. Unless you’re staying in one of our specialty apartments, we don’t allow parties or excessive noise. 8. I",,2018-10-29
6226,4439956,Greenwich/West Village Private Room,89437607454,0.0,Courtney,Manhattan,West Village,40.73033,-74.00284,United States,US,True,flexible,Private room,2020.0,67.0,13.0,1.0,0.0,,,5.0,2.0,139.0,"According to general house rules: no smoking, pets are not allowed in the complex. ",,
6238,4446583,Private Room in Spacious Uptown Apt,24634560613,1.0,Janine Renee,Manhattan,Harlem,40.82083,-73.95436,United States,US,True,flexible,Private room,2018.0,393.0,79.0,7.0,15.0,6/11/2019,0.27,4.0,1.0,316.0,"We expect our guests to be respectful of our space, belongings and neighbors. Check out time is 11am and Check in time is 3pm.",,2019-06-11
6368,4518382,"Small, Cozy, Clean and Modern private room!",7866333032,1.0,Andrey,Manhattan,Harlem,40.8257,-73.93786,United States,US,False,flexible,Private room,2007.0,406.0,81.0,1.0,40.0,6/25/2019,2.88,4.0,1.0,323.0,"- I like to keep a quiet house. Please keep all noise low, especially in the morning and late at night. - Please take your shoes off before entering the apartment. - Always bolt the apartment door when entering or exiting. - If I am away when you check out, please put the keys in the lockbox and remember to set the code to 0000. - I don't charge for cleaning or extra people. Kindly return the favor by keeping the place clean. - No smoking indoors. - You may make use of food and beverages only if they are explicitly shared. If you have any questions, please ask.",,2019-06-25
6403,4537713,"""The Green Room"": Harlem Brownstone",76268581387,1.0,Jason & Agnes,Manhattan,Harlem,40.81995,-73.94607,United States,US,False,flexible,Private room,2018.0,312.0,62.0,3.0,122.0,6/29/2019,2.19,4.0,2.0,378.0,"Check-in is 2:00 pm, and checkout 11:00 am (the bedrooms please, you leave your bags to pick up later or bring them early). After reservation please send me your arrival and departure time for logistics Help yourself morning coffee or tea with a toast  (website hidden) shoes to the second floor  2.Keep the volume low before 8am and after 10pm 3.Close the doors gently (website hidden) shower after  11pm (website hidden) Laundry after  before 9am and after 8pm 6.Keep the kitchen and  bathroom in decent condition after you 7.Close the shower curtain well (important) (website hidden) water around the sink (under the sink there is a sponge you can use it to dry) 9.Turn off the light when you leave the room 10.Trash out from the room  BLUE BOX recycling  11.Leave the key in the room THANK YOU PS: sorry, I need to be more strict about leaving the bathroom, kitchen neat, and lights. If you leave the lights on and the bathroom is water on the floor or around the sink, the security deposit will ",,2019-06-29
6575,4632709,Comfy large room in Wash Heights,8282855835,1.0,Nathan,Manhattan,Washington Heights,40.83779,-73.94328,United States,US,False,flexible,Private room,2019.0,457.0,91.0,2.0,248.0,7/5/2019,4.65,4.0,1.0,303.0,"Please, no smoking inside the building or on the porches.  Due to sensitivities, we ask that you not use perfume, cologne, or aerosol products in the house. No parties. No illegal drug use.  We are an eco-friendly family and appreciate your help in recycling (bin in the kitchen) and turning off lights, fans, etc. when not in use.  Please lock all doors of the building behind you.",,2019-07-05
6588,4639888,Large queen size bedroom in huge loft apt,20153172586,0.0,Angie,Manhattan,East Harlem,40.79796,-73.93856,United States,US,False,flexible,Private room,2011.0,407.0,81.0,2.0,15.0,6/29/2019,0.33,5.0,2.0,279.0,,,2019-06-29
6943,4835955,a cozy room in manhattan!,60227398378,1.0,Umut&Deniz,Manhattan,Lower East Side,40.71904,-73.98962,United States,US,False,flexible,Private room,2010.0,590.0,118.0,2.0,80.0,6/24/2019,1.49,4.0,5.0,286.0,,,2019-06-24
6975,4853629,"Enjoy Central Park,",2997573748,1.0,Yas,Manhattan,Upper East Side,40.77595,-73.95573,United States,US,False,flexible,Private room,2005.0,316.0,63.0,3.0,28.0,5/22/2019,0.55,5.0,2.0,306.0,"Please note that we are a no smoking environment, and pets are only accepted in certain room types that have direct access to the outside. Please call ahead to make arrangements. ",,2019-05-22
7023,4880139,Great Gramercy Share Apt,86344383982,0.0,Courtney,Manhattan,Gramercy,40.73718,-73.98373,United States,US,True,flexible,Private room,2011.0,666.0,133.0,5.0,0.0,,,5.0,1.0,376.0,,,
7197,4976239,"Small, Comfortable Bedroom w/Private Bathrm for 2",19763354950,0.0,Stephanie,Manhattan,Hell's Kitchen,40.76432,-73.98599,United States,US,False,flexible,Private room,2020.0,732.0,146.0,2.0,195.0,6/28/2019,3.69,5.0,1.0,-1.0,"LAUNDRY - Laundry can be done by the visitor before 10 pm, preferably on weekends. - Please provide your own detergent and fabric conditioner. Keep the machine clean and remember to clean the filter before and after use. - Please ask hosts to teach you how to operate the machines if you are not familiar with it. - Please limit your load and washes as not to overload the machine. - One wash per week will be ideal. HOUSEKEEPING - The bedrooms shall be kept clean and tidy by the visitor. - Please be respectful of others and keep the bathroom clean – do not leave dirty clothes and trash lying around. - Each visitor is responsible for cleaning their own dirty dishes and throwing their own trash in the garbage bin outside. - Please provide your own toiletries such as bath soap, shampoo and toothpaste.  KITCHEN USE  - We are sharing our kitchen and kitchenware stuff. Please make sure to take care of them and make sure you clean, dry and put them back where you found them. If you are cooking, ",,2019-06-28
7286,5025394,Private Room Inwood Park Top of Manhattan,80125934793,1.0,Luz & Ruben,Manhattan,Inwood,40.87206,-73.92946,United States,US,False,flexible,Private room,2008.0,266.0,53.0,4.0,13.0,8/18/2018,0.28,4.0,3.0,26.0,,,2018-08-18
7404,5090565,Sunny spacious private unit close CENTRAL PARK!,96499778505,0.0,Nina,Manhattan,Upper East Side,40.77045,-73.95564,United States,US,False,flexible,Private room,2009.0,436.0,87.0,30.0,57.0,10/10/2018,1.1,4.0,3.0,348.0,"All overnight guests must be booked through Airbnb. If you plan to have visitors to your room please check with us beforehand. No candles or other open flames. No smoking, or drugs in the house.  Moderate drinking ok. ",,2018-10-10
7410,5093879,Winter Deal! Cosy room available in East Village,11479208462,0.0,Marion,Manhattan,Gramercy,40.73305,-73.98255,United States,US,False,flexible,Private room,2017.0,100.0,20.0,5.0,4.0,2/21/2017,0.08,5.0,1.0,245.0,"No candles. Close and lock windows when you leave the house. Clean up after yourself in the bathroom and the kitchen. Mutual respect and have fun! If you want to have an event or party, let's check in about it first.",,2017-02-21
7455,5118733,"Cozy 3 and 1/2 bedroom apt ,near Times Square",23464166048,0.0,Nya,Manhattan,Hell's Kitchen,40.75702,-73.99458,United States,US,True,flexible,Private room,2006.0,796.0,159.0,7.0,2.0,5/15/2019,0.14,4.0,1.0,-3.0,No smoking  Not pets  No parties or events No candles,,2019-05-15
7519,5154080,Master w/ private bath and sleeping loft. 2 beds,52014673155,0.0,Kate,Manhattan,Upper West Side,40.78913,-73.97021,United States,US,False,flexible,Private room,2020.0,356.0,71.0,2.0,7.0,5/17/2016,0.14,5.0,1.0,233.0,"WHEN BOOKING, PLEASE PROVIDE THE FOLLOWING IN YOUR MESSAGE to me:  - 1. Total number of guests (adults, children, babies)? Are there any elderly or children under 18? If so, what are their ages?  - 2. Arrival Date AND Time of Check In? (Check In between 2 pm and 9 pm with some leniency)  - 3. Departure Date (Check out before 12 pm/noon)  - 4. Please tell me a little about yourselves and the purpose of your trip.  - 5. What Other Needs or Special Requests or Extra Options (please read below for additional options and possible related additional fees).  ------  PLEASE NOTE THE FOLLOWING BEFORE REQUESTING A BOOKING:  * I will reply as soon as possible to let you know if my apartment will be available for ALL your needs.  - 1. We are happy to host Friendly, Neat, Low-Maintainence Adults & Well-Behaved Children, as well as their well Behaved Pets.  ---- All cookware and utensils in the kitchen are at your disposal. There will be water (brita) and basic condiments provided for you. We ask th",,2016-05-17
7536,5163469,Room One in cozy apartment_1,40769319253,0.0,Douglas,Manhattan,Washington Heights,40.83481,-73.94317,United States,US,True,flexible,Private room,2005.0,430.0,86.0,2.0,11.0,5/31/2019,0.32,4.0,3.0,239.0,Please be mindful in the kitchen and bathroom after 23:00.,,2019-05-31
7633,5217042,Big Bedroom in Huge Loft. W.37thNYC,3672702211,1.0,Peter,Manhattan,Hell's Kitchen,40.75437,-73.99334,United States,US,True,flexible,Private room,2015.0,796.0,159.0,4.0,2.0,6/14/2015,0.04,5.0,1.0,342.0,,,2015-06-14
7634,5217594,Private Room Available!,6496423903,1.0,Nina,Manhattan,Harlem,40.82171,-73.95515,United States,US,False,flexible,Private room,2009.0,469.0,94.0,1.0,6.0,8/16/2016,0.12,5.0,1.0,-9.0,"- I work at home and prefer to rent to folks who are visiting Boston for business and professional reasons.  Most of my guests are here to work in the Longwood Medical Area.  I often rent to fourth-year medical students doing rotations at HMS, and to physicians and post-docs affiliated with other institutions in the LMA. - I have a dog and two cats, so please take care and don't leave the front door standing open. -Please, no guests.  There are lots of pubs in the neighborhood if you want to meet friends.",,2016-08-16
7825,5323084,Cozy NYC Bedroom in the Best Manhattan Location!,22976289101,1.0,Sterling,Manhattan,Chelsea,40.74717,-73.99179,United States,US,True,flexible,Private room,2003.0,682.0,136.0,1.0,158.0,7/4/2019,3.08,4.0,1.0,152.0,"Please be considerate of the space and the neighbors.  Sorry, no parties allowed, this is more of a quiet space. Looking for more towels or need an extra pillow? Don't hesitate to text me! Things happen. If something gets broken, please let me know so I can replace it.",,2019-07-04
7920,5375552,Live in Harlem close to Columbia U!,84197795178,1.0,Mekkie,Manhattan,Morningside Heights,40.80465,-73.95827,United States,US,True,flexible,Private room,2017.0,797.0,159.0,2.0,7.0,1/7/2019,0.15,5.0,2.0,83.0,"- Please be quiet in the hallway/stairs late at night - I live in a small apartment building (5 apartments), my neighbors are young professionals (no college students) and are very quiet and polite  so please reciprocate - No overnight guests that are not on the reservation/have not been agreed upon in advance. - No smoking in the apartment, out the window, etc.   -Please be mindful of shutting off lights, air conditioners, etc when not in use/when leaving the apartment. -If you cook please take care of your dishes (you can use the dishwasher).",,2019-01-07
8020,5430782,"Ideal Location, Spacious IBr",56370811173,0.0,Sagnes,Manhattan,Kips Bay,40.74174,-73.97878,United States,US,False,flexible,Private room,2003.0,143.0,29.0,7.0,1.0,5/31/2015,0.02,4.0,1.0,46.0,"We live on a quiet street with many friendly homeowners, please be courteous of neighbors.  Our welcome binder includes helpful information.",,2015-05-31
8079,5463368,Shared Room in Luxurious 2BD,22332924253,1.0,Damien,Manhattan,Upper East Side,40.7755,-73.9475,United States,US,False,flexible,Private room,2013.0,708.0,142.0,1.0,1.0,5/19/2015,0.02,4.0,2.0,124.0,,,2015-05-19
8106,5478280,Lovely bedroom near Central Park,75891494021,0.0,Guangyu,Manhattan,Morningside Heights,40.80461,-73.96401,United States,US,False,flexible,Private room,2012.0,81.0,16.0,1.0,0.0,,,4.0,1.0,248.0,"House Rules 1. Check-in is 4 pm local time. If the unit is ready earlier, we’ll let you know. Check-out is normally 11 am local time, but we’d be happy to extend it as long as we don’t have a cleaning scheduled. Just let us know.  2. All bookings require a security deposit of at least $300, which will be refunded within 7 days of your check-out. 3. For security measures we require all guests to provide proof of identification through ID verification on our own website. In order to check in we'll need a photo of your ID.  4. Our cancellation policy is as shown on our ad and defined by the site you are booking through.  5. Don’t let $300 go up in smoke. There's no smoking allowed in any Flatbook and a $300 fine for breaking this rule.  6. Unfortunately we don’t allow pets in any of our apartments. 7. Unless you’re staying in one of our specialty apartments, we don’t allow parties or excessive noise. 8. If we find the place very messy, we have to charge an extra $40 for every extra hour o",,
8150,5502581,Colorfull and Modern Bedroom UES A3,40135740859,0.0,Yohan,Manhattan,East Harlem,40.78709,-73.94423,United States,US,False,flexible,Private room,2009.0,175.0,35.0,30.0,4.0,11/24/2018,0.15,5.0,9.0,40.0,No Smoking No Pets,,2018-11-24
8257,5561677,"1 Train, Delis, Duane Read,Eat Outs",17884440781,0.0,Sundar,Manhattan,Morningside Heights,40.81444,-73.95863,United States,US,True,flexible,Private room,2018.0,137.0,27.0,1.0,1.0,5/18/2015,0.02,5.0,1.0,380.0,"A residential, quiet, small building. Non- smoking. No heavy drinking. No pets",,2015-05-18
8268,5567752,Lovely Lofted Room in UWS,80540891246,0.0,Wing-Yee,Manhattan,Upper West Side,40.80066,-73.96941,United States,US,True,flexible,Private room,2006.0,487.0,97.0,1.0,1.0,6/9/2015,0.02,5.0,1.0,334.0,#NAME?,,2015-06-09
8318,5595367,Sunny Bedroom in West Village Loft,32222565958,1.0,Lisa,Manhattan,West Village,40.73314,-74.00835,United States,US,False,flexible,Private room,2008.0,669.0,134.0,2.0,0.0,,,5.0,1.0,344.0,,,
8319,5595920,Lower East Side/Chinatown Bedroom,2332813264,1.0,Sasha,Manhattan,Two Bridges,40.71193,-73.99454,United States,US,True,flexible,Private room,2020.0,304.0,61.0,2.0,28.0,11/8/2018,0.55,4.0,1.0,72.0,"There are two other units in this building, quiet, clean and respectful of neighbors is all we request. Regrets, no pets and no smoking.",,2018-11-08
8505,5698648,Sunny Apt. in Historic Harlem Bldg.,55068638813,1.0,Jennifer,Manhattan,Harlem,40.82553,-73.93875,United States,US,False,flexible,Private room,2008.0,777.0,155.0,1.0,6.0,5/18/2016,0.13,4.0,1.0,270.0,,,2016-05-18
8617,5760505,Private Bedroom in Spanish Harlem,20511711625,0.0,Kay,Manhattan,East Harlem,40.79601,-73.93454,United States,US,True,flexible,Private room,2005.0,410.0,82.0,2.0,0.0,,,5.0,1.0,223.0,"NO smoking, no pets, all guests must be disclosed. ",,
8618,5761057,Central Park North - 15min de T SQ,76488644193,1.0,Quentin,Manhattan,Harlem,40.80133,-73.95251,United States,US,False,flexible,Private room,2007.0,283.0,57.0,1.0,0.0,,,5.0,1.0,352.0,,,
8699,5805794,Luxury Apt near Time Square,94749328948,0.0,Leiya,Manhattan,Hell's Kitchen,40.75885,-73.99584,United States,US,False,flexible,Private room,2019.0,582.0,116.0,7.0,2.0,11/7/2015,0.04,4.0,1.0,174.0,,,2015-11-07
8716,5815183,Sunny 1BR in hip East Village,22744727348,1.0,Corey,Manhattan,East Village,40.72354,-73.9819,United States,US,True,flexible,Private room,2011.0,267.0,53.0,2.0,17.0,8/1/2016,0.35,5.0,1.0,272.0,,,2016-08-01
8922,5928957,1 BR available in lovely LES unit,17176883630,1.0,Ben,Manhattan,Lower East Side,40.72082,-73.98592,United States,US,False,flexible,Private room,2011.0,88.0,18.0,1.0,6.0,5/7/2016,0.12,5.0,1.0,150.0,,,2016-05-07
8930,5933375,Hudson Luxury Suite - Water and Bridge Views,72804973984,0.0,Elam,Manhattan,Washington Heights,40.8395,-73.9447,United States,US,True,flexible,Private room,2009.0,524.0,105.0,3.0,1.0,7/15/2015,0.02,5.0,1.0,326.0,Just ask you to respect everything in apartment.  No parties please. Thank you,,2015-07-15
8942,5940003,Clean & sunny private room (fits 3),67367318716,0.0,Kristy,Manhattan,East Harlem,40.79487,-73.93477,United States,US,False,flexible,Private room,2010.0,377.0,75.0,2.0,68.0,6/22/2019,1.39,5.0,5.0,261.0,-No smoking -No guests except those registered in advance.  -House is not child friendly. No guests under 18 years old.  Only 2 guests can be accommodated.   -No pets!  -Quiet in common stairway /entranceway used by 3 tenants is required common courtesy. -Please remove shoes in the unit to minimize noise below. ,,2019-06-22
9023,5984739,West Village Apartment With Character,51991779637,1.0,Josh,Manhattan,Greenwich Village,40.73256,-74.00008,United States,US,False,flexible,Private room,2013.0,424.0,85.0,14.0,0.0,,,4.0,1.0,304.0,#NAME?,,
9134,6046044,"Discount! Mins to SOHO -Cozy, Good Sized Bedroom",93968287670,1.0,Kandee,Manhattan,Lower East Side,40.71947,-73.99327,United States,US,True,flexible,Private room,2005.0,562.0,112.0,1.0,2.0,9/23/2016,0.04,4.0,3.0,368.0,Please respect our neighbors and keep noise to a minimum.,,2016-09-23
9167,6064270,Nice and Cozy Room,6402191466,1.0,Melissa,Manhattan,East Village,40.72294,-73.9857,United States,US,True,flexible,Private room,2006.0,271.0,54.0,1.0,0.0,,,4.0,1.0,237.0,,,
9171,6066479,"Safe,quiet,cozy,Washington Hts Apt",92398842230,1.0,Lynn,Manhattan,Washington Heights,40.84454,-73.94188,United States,US,True,flexible,Private room,2020.0,412.0,82.0,1.0,0.0,,,4.0,1.0,44.0,,,
9411,6199031,Quaint&Cozy 1BR-Gem in East Village,85844978814,1.0,Joyce,Manhattan,East Village,40.72873,-73.98793,United States,US,False,flexible,Private room,2018.0,65.0,13.0,8.0,3.0,1/1/2016,0.06,4.0,1.0,183.0,Absolutely no smoking and no pets,,2016-01-01
9467,6229960,Studio apt. Central Park West,42840353249,1.0,Monada,Manhattan,Upper West Side,40.79715,-73.96873,United States,US,True,flexible,Private room,2017.0,144.0,29.0,1.0,0.0,,,4.0,1.0,274.0,"The rules of the house are pretty basic: treat it like your own and please keep things tidy.  Like any city apartment, the walls can be a bit thin, so guests are encouraged to keep things to a reasonable volume and be respectful of my neighbors. I have some pretty annoying allergies, so no pets are allowed.",,
9490,6242663,Quiet private room upper east side,34622841998,0.0,Sabrina,Manhattan,Upper East Side,40.77877,-73.94824,United States,US,False,flexible,Private room,2006.0,468.0,94.0,1.0,3.0,10/23/2015,0.06,4.0,1.0,25.0,,,2015-10-23
9491,6243215,"Bedroom in Financial District, NYC",92559161959,0.0,Lucia,Manhattan,Financial District,40.70811,-74.01301,United States,US,True,flexible,Private room,2006.0,275.0,55.0,1.0,1.0,8/4/2015,0.02,5.0,1.0,201.0,,,2015-08-04
9592,6298998,New York Apt in the Heart of NY,55936212072,1.0,Thomas,Manhattan,Chelsea,40.74627,-73.99142,United States,US,False,flexible,Private room,2009.0,582.0,116.0,1.0,0.0,,,5.0,1.0,182.0,"Please remember that this is a residential building. The building rules, apartment occupancy restrictions and the year-round tenants must be respected.  Parties, pets and smoking are not allowed under any circumstances and incur significant fees.",,
9603,6305073,Great E.Village Apt. Best Location!,73181823788,1.0,Alexi,Manhattan,East Village,40.72423,-73.99013,United States,US,True,flexible,Private room,2016.0,626.0,125.0,2.0,4.0,8/12/2015,0.08,5.0,1.0,70.0,We expect guests to respect our neighbors and not be overly loud. No parties please. Absolutely no smoking.,,2015-08-12
9612,6310044,Stunning 1BR - SoHo Prime Location!,1004952833,1.0,Andrew,Manhattan,SoHo,40.7221,-74.00464,United States,US,True,flexible,Private room,2003.0,720.0,144.0,2.0,2.0,10/9/2015,0.04,4.0,1.0,181.0,,,2015-10-09
9787,6406696,Comfy room (only) in my apt - UWS,36092027027,1.0,Travis,Manhattan,Upper West Side,40.77778,-73.9781,United States,US,False,flexible,Private room,2015.0,546.0,109.0,2.0,183.0,7/1/2019,3.9,4.0,1.0,402.0,#NAME?,,2019-07-01
9797,6412219,"Private room, shared bathroom.",47730277083,0.0,Craig,Manhattan,Harlem,40.82034,-73.94345,United States,US,True,flexible,Private room,2007.0,188.0,38.0,1.0,0.0,,,4.0,1.0,304.0,"- Peanut/Nut Free, Gluten Free house please for the safety of many people including the cleaning crew, myself, and others who wish to stay here in the future do not bring these items (i.e. peanut butter or peanuts) into the house - Please let me know if you plan to bring an animal as I do occassionally have a foster animal here, I'd want to make sure I wasn't fostering at that time, or make other arrangements. - No smoking in doors, it WILL set off the fire alarms in the building, which is loud and causes the entire building to have to evacuate and wait outside (and trust me, it is loud enough and annoying enough it WILL wake you from a dead sleep and you'll be rushing to get out and save your ears from the sound! Also there is a $100-$200 fee for smoking inside or for smoking infront of the building (or either building on each side). But, you are welcome to walk across or down the street a bit or around the block, etc to smoke - You may order movies or anything else On Demand, but ple",,
9905,6471868,"Sunny, quiet home away from home",51256055758,1.0,David,Manhattan,Upper East Side,40.77756,-73.94859,United States,US,True,flexible,Private room,2009.0,56.0,11.0,7.0,9.0,9/13/2018,0.6,4.0,1.0,32.0,,,2018-09-13
9906,6472420,Modern & Stylish HK Private Bedroom,75139930510,1.0,Jd,Manhattan,Hell's Kitchen,40.76769,-73.99405,United States,US,True,flexible,Private room,2008.0,401.0,80.0,3.0,17.0,5/24/2019,0.37,5.0,1.0,296.0,,,2019-05-24
9914,6476838,Murray Hill Luxury ApT w/ BALCONY,62005107462,0.0,Brandon,Manhattan,Kips Bay,40.7438,-73.9781,United States,US,True,flexible,Private room,2008.0,265.0,53.0,3.0,19.0,3/22/2016,0.43,4.0,1.0,408.0,"No smoking or drug use.  No parties.  No drinking of alcohol in room""p No guests other than those specified in your booking. No moving of furniture without asking Turn lights off when not in use No food in rooms, food can be stored in kitchen area Kitchen not in use Check-out time no later than 11am Host's food is off limits only what is serve and put out for breakfast!",,2016-03-22
10027,6539248,Master bedroom in a 3BR apt in UES,85700155759,0.0,Haïssam,Manhattan,Upper East Side,40.76102,-73.96124,United States,US,True,flexible,Private room,2016.0,64.0,13.0,1.0,1.0,8/7/2015,0.02,5.0,1.0,151.0,,,2015-08-07
10040,6546428,Manhattan/ private room & private toilet.,43636972857,0.0,Asger,Manhattan,Little Italy,40.71912,-73.99776,United States,US,True,flexible,Private room,2005.0,409.0,82.0,2.0,6.0,7/7/2019,0.13,5.0,1.0,131.0,This is a quiet home. No parties. No pets. No smoking.,,2019-07-07
10061,6558026,1BR in a 3BR Apt by Columbia,97777011438,0.0,Joon,Manhattan,Upper West Side,40.80113,-73.96566,United States,US,True,flexible,Private room,2019.0,212.0,42.0,1.0,0.0,,,4.0,1.0,382.0,,,
10102,6580671,Central Harlem Loft Bdrm + Garden,36628674477,1.0,Graham,Manhattan,Harlem,40.8098,-73.94443,United States,US,False,flexible,Private room,2016.0,496.0,99.0,2.0,1.0,9/21/2015,0.02,4.0,3.0,406.0,,,2015-09-21
10196,6632587,Private Room in Shared Apartment,15361411241,0.0,Adam,Manhattan,Kips Bay,40.74111,-73.97959,United States,US,False,flexible,Private room,2016.0,762.0,152.0,7.0,0.0,,,5.0,1.0,166.0,"Guests who use kitchen must wash their dishes (or put them in dishwasher) and wipe stove and counters after eating, in courtesy to other guests. No smoking inside or behind the house; smoking is permitted only in smoking area in front of house. To maintain quiet on floors with bedrooms, please use headphones to listen to music/videos or when making (website hidden) calls in bedrooms, and keep hallways conversations quiet and short.  ",,
10209,6639767,Beautiful Sunny Room Near A/D & 2/3,24169508795,0.0,John,Manhattan,Harlem,40.80689,-73.94784,United States,US,False,flexible,Private room,2020.0,568.0,114.0,1.0,0.0,,,5.0,1.0,353.0,"Check-in is after 3PM Some general information about the apartment. Please try to keep it relatively quite, especially at night. Strict no parties or entertainment policy. No additional guests are allowed outside of reservation. No smoking inside the apartment or hallway. No pets allowed in the apartment. Unfortunately no young children as the house is not equipped for children under 10.   When making a booking - please have a verified email address and phone number on your airbnb account. Respect and treat the apartment as your own and how you would expect others to treat yours. Please communicate with us as soon as possible, should something go wrong during your stay, so we can try to fix it as soon as possible. Once you've confirmed the booking, please respect the apartment and don't hesitate to make it your own. We want you to feel like you are at home, so to sum it all up.. don't do things you wouldn't do at your own place We look forward to welcoming you and have a great time in ",,
10211,6640871,Nice Private Room Near Columbia U.,3502397208,1.0,Shichao,Manhattan,Morningside Heights,40.80379,-73.96571,United States,US,True,flexible,Private room,2015.0,733.0,147.0,1.0,4.0,8/29/2015,0.08,5.0,1.0,228.0,,,2015-08-29
10244,6659097,Bedroom in Soho/Nolita Two-bedroom,7144054347,0.0,Chris,Manhattan,Nolita,40.72113,-73.99465,United States,US,True,flexible,Private room,2005.0,264.0,53.0,2.0,10.0,2/18/2018,0.21,4.0,2.0,81.0,"Shoes off in the house, please! Turn A/C off when not home, and hand-wash the knives. Thanks :).",,2018-02-18
10370,6728687,Room in a Beautiful East Village Apt!,7422300976,1.0,Asif,Manhattan,East Village,40.72157,-73.97861,United States,US,False,flexible,Private room,2015.0,629.0,126.0,7.0,42.0,4/30/2019,0.89,5.0,1.0,192.0,No pets. No smoking. Please :),,2019-04-30
10400,6745256,SOHO NYC SEPT ROOM AVAILABLE!!,77498877695,0.0,Olivia,Manhattan,SoHo,40.72251,-73.99957,United States,US,True,flexible,Private room,2010.0,287.0,57.0,1.0,0.0,,,4.0,1.0,377.0,"As this is our personal living space, we request that there be no smoking indoors and that you treat our belongings with respect. Pets are allowed, provided they are well behaved and low shedding :) We own a dog (who will not be on premises during your stay), who does shed, although we will have the place cleaned prior to your arrival. However, anyone with potential allergies should be aware.  If it would be possible, we would greatly appreciate if guests would provide water for our plants a couple of times during their stay. There are only 4 total and they are conveniently located right in the kitchen. Three are herb plants (basil, thyme and aloe) and you are welcome to use any while you are there!",,
10575,6841909,Cozy room harlem,56346685226,0.0,April,Manhattan,Harlem,40.81993,-73.94704,United States,US,True,flexible,Private room,2003.0,247.0,49.0,2.0,0.0,,,4.0,1.0,236.0,Please do not smoke. Be respectful of the other guests.,,
10604,6857925,Private BR in 3 BR Apt,20221517015,0.0,Kara,Manhattan,Lower East Side,40.7146,-73.98423,United States,US,False,flexible,Private room,2016.0,165.0,33.0,3.0,5.0,1/2/2016,0.11,4.0,4.0,197.0,,,2016-01-02
10663,6890511,Cozy room in renovated Harlem apt,54229816445,1.0,Jacqueline,Manhattan,Harlem,40.80214,-73.95325,United States,US,False,flexible,Private room,2018.0,143.0,29.0,6.0,1.0,1/31/2017,0.03,4.0,1.0,45.0,"Share our house as a guest, don't worry about cost of snacks or an occasional beer. No smoking. Please consult first if you will be traveling with small children. We try to keep the space clean and ask everyone to remove their shoes in the appartment and be respectful to everyone.",,2017-01-31
10713,6918126,West Village: the best part of town,64380900115,1.0,Andrew,Manhattan,West Village,40.73618,-74.00201,United States,US,False,flexible,Private room,2011.0,77.0,15.0,1.0,0.0,,,5.0,1.0,330.0,,,
10724,6924201,Classic Harlem --- Economy Room,26569030181,1.0,Glenda,Manhattan,Harlem,40.82205,-73.9467,United States,US,False,flexible,Private room,2009.0,715.0,143.0,1.0,161.0,6/17/2019,3.46,4.0,3.0,402.0,"1. No damage to the house or furniture 2. No Smoking, No Pets, No Drugs 3. No more sleepover people then you booked 4. Keep quiet after 11:00 PM 5. Be respectful to neighbors 6. Keep the kitchen clean after used 7. Keep the bathroom clean after used 8. Check-in: 3PM, Check-out: 11:00AM",,2019-06-17
10887,7014226,Room in 1-Br by Columbus Circle,5663577159,0.0,Allan,Manhattan,Upper West Side,40.76974,-73.98743,United States,US,False,flexible,Private room,2004.0,465.0,93.0,2.0,2.0,1/3/2016,0.05,4.0,1.0,191.0,,,2016-01-03
11103,7133523,BEAUTIFUL&BRIGHT 1 bd (E. Village),65017926565,1.0,Zac,Manhattan,East Village,40.72917,-73.98517,United States,US,True,flexible,Private room,2009.0,207.0,41.0,1.0,27.0,2/22/2017,0.59,5.0,2.0,271.0,"Respect our home and our house is your house. Checkout is 11 am at the end of your stay, however you are welcome to leave your bags for the day. Please let us know when you plan to arrive. Depending on circumstances we can be very flexible.",,2017-02-22
11135,7151197,CHARM & LOCATION! Private Ensuite Bathroom in UES!,30520548579,1.0,Christine,Manhattan,Upper East Side,40.77127,-73.95175,United States,US,True,flexible,Private room,2008.0,70.0,14.0,7.0,90.0,6/28/2019,1.97,4.0,2.0,-7.0,-Quiet hours after 10 pm -Lock the front door when exiting and entering the property,,2019-06-28
11284,7233489,"Bright, airy, private room/shared bath-W Harlem",59583581615,0.0,Ed,Manhattan,Harlem,40.82219,-73.9448,United States,US,False,flexible,Private room,2003.0,424.0,85.0,1.0,58.0,6/23/2019,1.27,5.0,1.0,213.0,"Please take of your shoes just after entering. Please strip the beds and place towel and sheets in the hamper before you go. You will see additional rules and info once you enter the residence. Parking is permitted and for residents only unfortunately. The best place is the Boston Commons Garage or Revere Hotel. A bedroom is located below our kitchen in our neighbors apartment, please walk softly and be sure to take off shoes. Thank you!",,2019-06-23
11299,7241774,Charming room Chinatown Manhattan,1787276864,1.0,Alexandra,Manhattan,Chinatown,40.71319,-73.99265,United States,US,True,flexible,Private room,2007.0,77.0,15.0,1.0,1.0,10/13/2015,0.02,5.0,1.0,-3.0,Please be gentle with the furniture and appliances. Absolutely no smoking allowed. No parties please.,,2015-10-13
11327,7257238,ROOM WITH VIEW IN MANHATTAN!,20594774300,1.0,Sofia,Manhattan,East Harlem,40.80109,-73.93887,United States,US,False,flexible,Private room,2006.0,122.0,24.0,1.0,207.0,2/21/2019,4.55,5.0,4.0,96.0,,,2019-02-21
11342,7265523,Nature in the Heart of Manhattan,1206507420,0.0,Mattan,Manhattan,East Village,40.73128,-73.98596,United States,US,True,flexible,Private room,2019.0,666.0,133.0,1.0,6.0,6/14/2017,0.13,4.0,3.0,315.0,"Please remember that this is a residential building. The building rules, apartment occupancy restrictions and the year-round tenants must be respected.",,2017-06-14
11387,7290376,Cozy & Private Harlem Bedroom,48248284514,0.0,T.,Manhattan,Harlem,40.80769,-73.95497,United States,US,True,flexible,Private room,2018.0,253.0,51.0,1.0,76.0,6/18/2019,1.78,4.0,1.0,52.0,Treat this quaint apartment like it's your own.,,2019-06-18
11586,7400284,Charming duplex  Morningside Heights-Private Floor,71431799885,1.0,Edlira,Manhattan,Morningside Heights,40.81111,-73.95465,United States,US,False,flexible,Private room,2020.0,564.0,113.0,1.0,27.0,5/28/2019,2.87,4.0,1.0,111.0,#NAME?,,2019-05-28
11827,7533388,West 57th Street by Hilton Club,1622744717,0.0,Jill,Manhattan,Midtown,40.76331,-73.97911,United States,US,False,flexible,Private room,2010.0,369.0,74.0,3.0,0.0,,,5.0,1.0,17.0,No Smoking No Pets,,
12090,7678643,Staying with Mike in Hells Kitchen/Times Square.,7023912565,1.0,Michael,Manhattan,Hell's Kitchen,40.75925,-73.99136,United States,US,False,flexible,Private room,2016.0,176.0,35.0,5.0,125.0,9/29/2018,2.83,5.0,2.0,372.0,No smoking or parties allowed,,2018-09-29
12201,7739948,Bedroom in spacious apt w/ backyard,28121434147,0.0,Lorien,Manhattan,East Village,40.724,-73.98376,United States,US,False,flexible,Private room,2019.0,536.0,107.0,1.0,1.0,12/21/2015,0.02,5.0,1.0,223.0,"Inn Boston Reservations requests that noise levels remain moderate to low, and that all guests take into consideration those in the surrounding suites. Depending on the scale of the broken rules, guests may be contacted to request a lower noise level or asked to leave. In the event that the guests are required to vacate the unit, no refund will be provided.",,2015-12-21
12207,7743262,Private room in classic SoHo loft,86486213557,0.0,Ronnie,Manhattan,SoHo,40.72675,-74.00757,United States,US,False,flexible,Private room,2019.0,760.0,152.0,3.0,49.0,6/6/2019,1.44,5.0,1.0,104.0,NO Smoking,,2019-06-06
12351,7822793,Room #4 in Hip Harlem Garden Apt.,94821645048,0.0,Mama,Manhattan,East Harlem,40.79886,-73.93373,United States,US,True,flexible,Private room,2021.0,264.0,53.0,2.0,169.0,6/30/2019,3.87,5.0,4.0,168.0,Please treat this house as if it is your own.  - No smoking - No drug use - Shoes can be left in the hall. - Help yourself to anything in the refrigerator. - LOCK THE DOORS when you leave. Front door to condo locks on it's own.,,2019-06-30
12363,7829421,Great room in PERFECT location,90831831595,1.0,Francisco,Manhattan,Chelsea,40.74556,-74.00156,United States,US,False,flexible,Private room,2010.0,638.0,128.0,2.0,0.0,,,4.0,1.0,73.0,"No unexpected house guests please, and no smoking in the house!",,
12402,7850961,Cozy Room In Chinatown!,44759028418,1.0,Bridget,Manhattan,Financial District,40.71142,-74.00535,United States,US,False,flexible,Private room,2012.0,733.0,147.0,30.0,0.0,,,5.0,1.0,380.0,Please try to be quite and keep house clean. Thank you very much!,,
12494,7901772,Private Room in the West Village,1633139798,0.0,Henriette,Manhattan,West Village,40.73436,-73.99994,United States,US,False,flexible,Private room,2008.0,534.0,107.0,1.0,1.0,1/5/2016,0.02,4.0,1.0,118.0,Please be respectful of the space and the other tenants in the building.  Please treat the space as it were your own.,,2016-01-05
12614,7968048,Student apt. 3 minutes from the 1/C,59620294886,1.0,Tripp,Manhattan,Morningside Heights,40.80562,-73.95978,United States,US,False,flexible,Private room,2009.0,457.0,91.0,7.0,1.0,1/18/2016,0.02,5.0,1.0,374.0,,,2016-01-18
12720,8026592,Bright and Cosy bedroom,44659244172,0.0,Sonia,Manhattan,Harlem,40.80857,-73.942,United States,US,False,flexible,Private room,2020.0,584.0,117.0,1.0,19.0,1/4/2019,0.44,5.0,3.0,261.0,Don't disturb neighbors. Don't break things or leave a mess. Enjoy.,,2019-01-04
12888,8119378,A cozy room in Lower East Manhattan,18478785504,0.0,Emily,Manhattan,Lower East Side,40.71209,-73.98794,United States,US,True,flexible,Private room,2018.0,153.0,31.0,28.0,2.0,1/14/2016,0.05,5.0,1.0,226.0,"- No smoking.  - Maximum of 2 people  - Sorry, no children. (I love kids, but this is a very quiet building. It's all young professionals.  - Please be quiet and respectful of others in the building (no loud music/tv,   - Please dispose of baby wipes and/or tampons in the waste basket, not in the toilet. (the pipes are old and clog easily – last time baby wipes had to be removed from the pipes, the plumbing bill was $350!).",,2016-01-14
12909,8130977,21st Floor Bedroom in Doorman & Elevator Building,45152225118,0.0,Greg,Manhattan,Kips Bay,40.74423,-73.97742,United States,US,False,flexible,Private room,2008.0,751.0,150.0,4.0,107.0,4/15/2019,2.5,5.0,2.0,55.0,希望房间里一切都好好的吧,,2019-04-15
12941,8148650,1 bedroom in Morningside Apartment,37103720358,1.0,Amanda,Manhattan,Washington Heights,40.85509,-73.93236,United States,US,False,flexible,Private room,2003.0,426.0,85.0,1.0,1.0,12/31/2015,0.02,5.0,1.0,414.0,,,2015-12-31
13017,8190625,Big bedroom with private bathroom!,72496626222,1.0,Sierra,Manhattan,Harlem,40.82976,-73.94663,United States,US,True,flexible,Private room,2014.0,595.0,119.0,8.0,1.0,1/2/2016,0.02,4.0,1.0,371.0,,,2016-01-02
13053,8210508,LES Private Room + Private Bath,43277712778,0.0,Ashley,Manhattan,Lower East Side,40.72282,-73.98908,United States,US,True,flexible,Private room,2020.0,284.0,57.0,20.0,0.0,,,4.0,1.0,261.0,"Please remember that this is a residential building. The building rules, apartment occupancy restrictions and the year-round tenants must be respected.  Parties, pets and smoking are not allowed under any circumstances and incur significant fees.",,
13082,8226525,"Quiet, private room Upper West Side",14138566779,1.0,Aidan,Manhattan,Upper West Side,40.77578,-73.97794,United States,US,False,flexible,Private room,2003.0,447.0,89.0,2.0,16.0,4/1/2018,0.47,4.0,1.0,95.0,,,2018-04-01
13095,8233705,East Village / Alphabety City Apt,30571388248,1.0,Caroline,Manhattan,East Village,40.72626,-73.97822,United States,US,True,flexible,Private room,2003.0,435.0,87.0,1.0,4.0,6/27/2016,0.09,5.0,1.0,174.0,,,2016-06-27
13101,8237018,Soho/Greenwich Village Bedroom,92789310173,0.0,Jessica,Manhattan,Greenwich Village,40.72791,-73.99997,United States,US,False,flexible,Private room,2012.0,481.0,96.0,1.0,3.0,6/27/2016,0.07,4.0,3.0,155.0,,,2016-06-27
13257,8323177,Huge & Beautiful Bedroom - Manhattan,54680346423,1.0,Jessica,Manhattan,Harlem,40.82362,-73.95063,United States,US,False,flexible,Private room,2011.0,335.0,67.0,1.0,7.0,4/4/2018,0.23,5.0,2.0,-4.0,"Please just keep your area reasonably clean and pick up after yourself. Nothing special. All the kitchen appliances that are there are available for your use. Just wash your dishes and pick up any trash you have. If something has happened don't feel embarrassed, just let us know and we'll take care of it. Also no smoking and no loud parties. Come, enjoy yourself and have fun.",,2018-04-04
13286,8339194,1 bd available in 3bd apt in UWS,29186180656,0.0,Minoo,Manhattan,Upper West Side,40.78347,-73.97748,United States,US,False,flexible,Private room,2016.0,293.0,59.0,2.0,2.0,11/26/2016,0.05,5.0,1.0,313.0,"A few totally painless house rules:  - Please take your shoes off once inside the apartment. My apartment is kept very clean and tidy, so taking shoes off is essential to keeping it the same way for you and for me. - Kitchen is available for ""light use"" and ""vegetarian"" food only. You are free to bring in outside cooked food/meat. Please stack the dishes in the dishwasher to the left of the sink. Keep the kitchen and counters clean immediately after use. Food should be consumed only in the dining area and not in the room. - When leaving the apartment, please always lock the top lock on the door, shut off all the lights before you leave, if you open windows, please close and lock them before you leave the apartment. - Quiet time after 10pm. - NO SMOKING IN THE APARTMENT (You can smoke in the balcony area)!  - SADLY NO PETS!! - ABSOLUTELY NO PARTIES!!!",,2016-11-26
13294,8343612,1 BR available in Midtown,2197643453,1.0,Salman,Manhattan,Murray Hill,40.74622,-73.97913,United States,US,False,flexible,Private room,2011.0,140.0,28.0,14.0,19.0,5/6/2019,0.52,4.0,1.0,34.0,This is two bedroom located in the heart of Brighton. It takes you to downtown by T within 20 minutes. The T is super close. The house rules are kind of very simple just please no smoking inside the house and no partying. No additional guest ($30 USD will be charged for per person if you have your guests) Shoes off please,,2019-05-06
13380,8391110,Master Bedroom & Private Office,92086336838,1.0,Gregory,Manhattan,East Village,40.72627,-73.9802,United States,US,False,flexible,Private room,2007.0,330.0,66.0,5.0,0.0,,,5.0,1.0,143.0,,,
13411,8408231,Spacios Room in Gorgeous Apt!,62502807086,1.0,Graciela,Manhattan,Harlem,40.82353,-73.93824,United States,US,True,flexible,Private room,2011.0,312.0,62.0,1.0,0.0,,,4.0,1.0,372.0,,,
13421,8413754,Private Master Bedroom & Full Bath,10775810291,0.0,Anton,Manhattan,East Village,40.7278,-73.98041,United States,US,True,flexible,Private room,2021.0,231.0,46.0,1.0,0.0,,,4.0,1.0,327.0,#NAME?,,
13500,8457386,Private Room for Rent,17014495182,1.0,Ashley,Manhattan,Washington Heights,40.85064,-73.93833,United States,US,False,flexible,Private room,2006.0,413.0,83.0,1.0,1.0,1/2/2016,0.02,5.0,1.0,188.0,,,2016-01-02
13622,8524767,great private room,50729391382,1.0,Han,Manhattan,Roosevelt Island,40.76882,-73.94315,United States,US,False,flexible,Private room,2019.0,527.0,105.0,1.0,7.0,8/23/2016,0.19,5.0,2.0,222.0,This is a quiet home. No parties. No pets. No smoking.,,2016-08-23
13623,8525319,Welcome Students!  Huge Very Private Uptown Room,13894387084,0.0,Chip,Manhattan,Harlem,40.83,-73.94931,United States,US,False,flexible,Private room,2009.0,628.0,126.0,30.0,0.0,,,5.0,2.0,120.0,"NO PETS!  NO SMOKING ON PREMISES! NO PARTY! A printed house rule will be provided. Please be respectful to others when all rooms are booked. 10 AM Check-out and Check-in is between 12 PM (noon) - 3 PM.   Late check in after 8 pm is $50, lock out is $50. Respect yourself, Respect others, clean up after yourself.  No Smoking/drinking in apt.  Thank You! Location Rules: The ""Exact Address Location Is Not Given.  It Is Not Disclosed For Security Reasons"" And Is Given Out 24 Hours Prior to Check-in.  If This Is a Problem for You, Please STOP Here And Contact Other Hosts for Your Stay.   This Is a Part Of My House Rules.",,
13670,8551277,One bedroom in great NYC location!,27133640148,1.0,Chelsea,Manhattan,Hell's Kitchen,40.76214,-73.98985,United States,US,False,flexible,Private room,2015.0,97.0,19.0,1.0,0.0,,,4.0,1.0,165.0,,,
13817,8632465,Large Private Minimalist Loft Room,39416985486,0.0,Steven,Manhattan,Chinatown,40.71489,-73.991,United States,US,True,flexible,Private room,2003.0,799.0,160.0,1.0,,,,5.0,1.0,357.0,"Our check in time is 3pm. If you would like to check in earlier please let us know ahead of time.   We are happy to accomidate if possible, but do understand that we need some time to make sure your room is ready on your arrival.  Clean up after yourself & turn lights off on our roof deck.  It is a common space in the building.    There is No Smoking in the apartment or on the roof deck.  Please no guests without checking with us. We have some nosy neighbors so if they ask where you are staying please let them know with friends or family.  Some of our neighbors are not happy with us using AirBNB.   Thank you for helping us out!",,
13833,8641302,Renovated Harlem Private Room,92687634315,1.0,Matthew,Manhattan,Harlem,40.81699,-73.94254,United States,US,False,flexible,Private room,2008.0,367.0,73.0,1.0,15.0,10/28/2016,0.35,5.0,1.0,315.0,,,2016-10-28
13950,8705921,Your stay at NYC Artist's Home,35668675252,0.0,Anna,Manhattan,Harlem,40.825,-73.95226,United States,US,True,flexible,Private room,2011.0,189.0,38.0,2.0,84.0,12/31/2018,2.23,4.0,2.0,14.0,No smoking inside. Please go in our backyard if you need to smoke. No pets.,,2018-12-31
13972,8718072,Magnificent New 2 BR near park Ave,35768891884,1.0,Dino,Manhattan,Midtown,40.755,-73.96562,United States,US,True,flexible,Private room,2020.0,482.0,96.0,3.0,9.0,12/28/2016,0.23,5.0,1.0,394.0,"WHEN BOOKING, PLEASE PROVIDE THE FOLLOWING IN YOUR MESSAGE to me:  - 1. Total number of guests (adults, children, babies)? Are there any elderly or children under 18? If so, what are their ages?  - 2. Arrival Date AND Time of Check In? (Check In between 2 pm and 9 pm with some leniency)  - 3. Departure Date (Check out before 12 pm/noon ideally)  - 4. Please tell me a little about yourselves and the purpose of your trip.  - 5. What Other Needs or Special Requests or Extra Options (please read below for additional options and possible related additional fees).  ------  PLEASE NOTE THE FOLLOWING BEFORE REQUESTING A BOOKING:  * I will reply as soon as possible to let you know if my apartment will be available for ALL your needs.  - 1. We are happy to host Friendly, Neat, Low-Maintainence Adults & Well-Behaved Children.  ---- All cookware and utensils in the kitchen are at your disposal. There will be water (brita) and basic condiments provided for you. We ask that you rinse whatever dishes",,2016-12-28
13976,8720281,Serene luxury in Harlem,49649223524,1.0,Erika,Manhattan,Harlem,40.80708,-73.95211,United States,US,True,flexible,Private room,2014.0,476.0,95.0,3.0,10.0,1/5/2019,0.28,5.0,1.0,233.0,"1. Only the ORIGINAL OCCUPANTS at the time of booking are allowed to stay in the property overnight and secondly no additional guest will be brought in without prior authorization. 2. Excessive NOISE & DISTURBANCES, specifically on work nights (Sunday thru Thursday) are to be kept to a minimum after 10pm. On other nights of the week we ask that noise is kept to a controlled, restrained and respectable level do to the nature of this being a shared space.  3. SMOKING is not permitted in any of the inside premisses, this includes the guest room, condo unit and building. You may smoke outside in the street or on the outdoor patio. 4. DAMAGES to the property and it's contents (within the bedroom and the condo itself) will be subject to reinstitution in accordance to airbnb rules and regulations and may lead to the immediate dismissal from the property. 5. WASHER & DRYER is available for use by the guest free of charge but under the condition that we (the host) are present at the time of use",,2019-01-05
14006,8736850,New York style loft space,65463494167,1.0,Samuel,Manhattan,East Harlem,40.80523,-73.93929,United States,US,False,flexible,Private room,2004.0,261.0,52.0,1.0,0.0,,,5.0,1.0,343.0,,,
14062,8767779,"On Broadway, clean & comfy room",77241028393,0.0,Neida,Manhattan,Harlem,40.82903,-73.94747,United States,US,True,flexible,Private room,2007.0,559.0,112.0,3.0,124.0,7/5/2019,3.16,5.0,2.0,422.0,,,2019-07-05
14126,8803126,A Zen oasis Harlem apartment,93971602914,1.0,Neta,Manhattan,Harlem,40.81195,-73.95274,United States,US,False,flexible,Private room,2013.0,493.0,99.0,1.0,17.0,8/9/2017,0.43,5.0,1.0,140.0,"This is an old house which was built in the 1900s, and may not be sparkingly clean and modern, but we appreciate it if you can clean after yourself, and put things back to where they belong. Garbage day is on Friday, you can simply put your trash into the dumpster and we'll take care of the rest. Please be respectful to other tenants on the second floor. Thank you.",,2017-08-09
14131,8805887,Lower East Side Walk Up Apartment,28068303127,0.0,David,Manhattan,Lower East Side,40.72005,-73.98409,United States,US,True,flexible,Private room,2015.0,759.0,152.0,5.0,1.0,5/28/2016,0.03,5.0,1.0,390.0,"Please treat it like your own place and leave it the way you found it! Please clean up prior to leaving.  No smoking indoors, no late night parties.",,2016-05-28
14447,8980414,Private room in Uptown Manhattan,69598292485,0.0,Jenniffer,Manhattan,Inwood,40.86313,-73.92162,United States,US,False,flexible,Private room,2020.0,592.0,118.0,2.0,55.0,4/22/2018,1.98,4.0,1.0,5.0,"Please pick up after yourself if you use the kitchen or other common areas, keep noise down at night, and, sorry, no smoking.  We're looking forward to having you!",,2018-04-22
14615,9073201,Clean Room in Prime Hip LES,77147883755,1.0,Zachary,Manhattan,Lower East Side,40.71713,-73.98906,United States,US,False,flexible,Private room,2005.0,63.0,13.0,1.0,14.0,10/1/2016,0.35,4.0,1.0,104.0,"Maximum of 2 guests staying in the studio.  No smoking anywhere in or outside the property.  No pets anywhere in or outside the property.  No parties anywhere in or outside the property.  No parking on our property or in the driveways.  No frying food.  No extreme temperature settings.   Any broken house rules, including evidence of cigarette butts, ashes, odors, stained linens, damaged furniture, or missing items will result in loss of deposit. All doors must be locked, and all lights should be turned off each time you leave. We kindly ask that you respect our property and our neighbors in this wonderful community.",,2016-10-01
14722,9132297,The Heart of Lower East Side,61305524037,0.0,Azeez,Manhattan,Lower East Side,40.71936,-73.98878,United States,US,True,flexible,Private room,2017.0,152.0,30.0,2.0,0.0,,,4.0,1.0,406.0,,,
14797,9173719,Private room available with river view!,61891413234,1.0,Natalie,Manhattan,Upper West Side,40.77889,-73.9878,United States,US,False,flexible,Private room,2018.0,563.0,113.0,14.0,0.0,,,4.0,1.0,377.0,,,
14930,9247175,1 Bedroom Heart of Financial Dist,87397004590,0.0,Hamza,Manhattan,Financial District,40.71111,-74.00936,United States,US,True,flexible,Private room,2006.0,386.0,77.0,2.0,0.0,,,4.0,1.0,75.0,"Please remember that this is a residential building. The building rules, apartment occupancy restrictions and the year-round tenants must be respected.",,
14946,9256012,Clean Cozy Room in Manhattan,90242044013,0.0,Maya,Manhattan,Harlem,40.82247,-73.95341,United States,US,False,flexible,Private room,2020.0,159.0,32.0,30.0,25.0,1/19/2019,0.65,5.0,2.0,173.0,Please no LOUD music after 2 AM.  The neighbors have recently complained.  Just be reasonable and cool and everything will be OK.  Thank you : ),,2019-01-19
15085,9332782,Private Theatre District Bedroom,67988325277,0.0,David,Manhattan,Hell's Kitchen,40.75857,-73.98942,United States,US,True,flexible,Private room,2016.0,149.0,30.0,2.0,6.0,12/17/2016,0.16,4.0,1.0,300.0,Please observe quiet after 11pm. Please tidy up if you use any dishes. Please no smoking.,,2016-12-17
15130,9357635,East Village 1B in 3B apt,65727595454,1.0,Angela,Manhattan,East Village,40.72966,-73.98476,United States,US,True,flexible,Private room,2022.0,550.0,110.0,1.0,2.0,6/1/2016,0.05,5.0,1.0,404.0,,,2016-06-01
15138,9362053,"Spacious, bright on Upper East Side",90478209328,0.0,Charles,Manhattan,Upper East Side,40.77433,-73.94854,United States,US,False,flexible,Private room,2009.0,726.0,145.0,11.0,9.0,3/31/2018,0.24,5.0,1.0,372.0,Please treat my house as you would treat your own. Be courteous and aware that this is our full time home. Clean basic messes and respect our property,,2018-03-31
15209,9401267,"Cute Apt, heart of east Village!",71285656910,0.0,Paul,Manhattan,East Village,40.72772,-73.97978,United States,US,True,flexible,Private room,2008.0,482.0,96.0,1.0,1.0,5/26/2016,0.03,4.0,1.0,12.0,"No street shoes in the house, please, but especially not in the bedrooms. We recycle - make sure you do too while you're here. It's single stream so very easy -ask if you're not sure how it works. Check-in and check-out times are flexible all days except Sunday where check-out is by 11 a.m.",,2016-05-26
15395,9503995,Private bedroom in high-ceiling 4BR apartment!,20261702232,0.0,Alejandro,Manhattan,Hell's Kitchen,40.76116,-73.99016,United States,US,True,flexible,Private room,2006.0,437.0,87.0,2.0,17.0,4/28/2017,0.43,4.0,1.0,250.0,,,2017-04-28
15407,9510622,Tidy relaxing and sunny bedroom,83404297470,0.0,Fer,Manhattan,East Harlem,40.79711,-73.93647,United States,US,True,flexible,Private room,2021.0,524.0,105.0,3.0,27.0,12/9/2016,0.69,4.0,1.0,0.0,,,2016-12-09
15484,9553149,Cozy 5Min2CentralPark/BroadwayShows/TimesSquareNY,40635615846,0.0,Joseph,Manhattan,Hell's Kitchen,40.76535,-73.98874,United States,US,False,flexible,Private room,2008.0,574.0,115.0,4.0,27.0,6/25/2018,0.7,4.0,1.0,58.0,"House Rules The house rules are an important part of staying in this condo.  You will be sharing a living space with other guests and a high level of consideration, respect, communication and tolerance is expected from you.  They are meant to make your stay more pleasant, to prevent conflicts and to protect the property of any damage.  If you feel there is something that needs to be addressed and that is not covered in these rules, please make sure you communicate that to the host. 1.  Toilet · The toilettes can only be used with toilet paper provided.  Any other material disposed of will cause the plumbing system to back up and create drainage problems.  No tissues, cotton balls, tampons, Q-tips cotton swabs or any kind of sanitary products are allowed down the toilets.  · Any plumbing work due to clogged toilets will be charged to the guests. 2. Noise and Quiet Hours · Quiet hours are from 10pm until 7am.  During quiet hours radios and stereos may be played at a level not to be heard",,2018-06-25
15571,9601199,20 Day Room Rental in Manhattan!!,76624101671,1.0,Indigo,Manhattan,Harlem,40.81498,-73.95078,United States,US,True,flexible,Private room,2021.0,768.0,154.0,20.0,0.0,,,5.0,1.0,315.0,,,
15626,9631576,Sunny light filled comfy bedroom,97611389363,1.0,Randy,Manhattan,East Harlem,40.80118,-73.94513,United States,US,False,flexible,Private room,2015.0,171.0,34.0,3.0,86.0,6/16/2019,2.28,4.0,2.0,23.0,No smoking or pets allowed,,2019-06-16
15659,9649802,Spacious Harlem room in tidy 4th-floor walkup,72054894008,0.0,Rose,Manhattan,Harlem,40.82095,-73.94007,United States,US,False,flexible,Private room,2007.0,135.0,27.0,1.0,1.0,5/14/2016,0.03,4.0,1.0,352.0,,,2016-05-14
15690,9666923,[Midtown NYC] Private room w/ private bathroom,56812758011,1.0,June,Manhattan,Hell's Kitchen,40.76358,-73.993,United States,US,True,flexible,Private room,2003.0,572.0,114.0,1.0,5.0,5/30/2016,0.13,5.0,1.0,55.0,,,2016-05-30
15723,9685149,Separate Bedroom on UES - 1 person,41921185812,1.0,Daniela,Manhattan,Upper East Side,40.76625,-73.9539,United States,US,True,flexible,Private room,2016.0,150.0,30.0,2.0,8.0,9/22/2018,0.21,4.0,2.0,186.0,Please be respectful of noise levels after 10pm.,,2018-09-22
15770,9711107,"Columbia University,COSO房源2017暑假招租,5月31日-7月31日",13313813392,1.0,岑,Manhattan,Upper West Side,40.8001,-73.9658,United States,US,True,flexible,Private room,2009.0,372.0,74.0,45.0,0.0,,,4.0,1.0,189.0,The apartment is in a brownstone shared with five other tenants.  Guests are expected to be respectful of the property and treat it like their own.  Small Pets are allowed but need to be approved.  No parties or loud late night noise. 420 Friendly.,,
15811,9733751,"Single bedroom, Manhattan",15214833567,1.0,James,Manhattan,Washington Heights,40.84278,-73.93916,United States,US,False,flexible,Private room,2019.0,555.0,111.0,3.0,3.0,5/16/2016,0.08,4.0,1.0,350.0,,,2016-05-16
15847,9753634,Big and cozy room,19045122079,0.0,Anna,Manhattan,Washington Heights,40.85147,-73.93618,United States,US,True,flexible,Private room,2015.0,104.0,21.0,3.0,5.0,8/25/2017,0.14,5.0,1.0,115.0,No Smoking  No Pets,,2017-08-25
15876,9769651,Upper East Side Private Room and Bath: A+ location,62887059635,1.0,Mohammad,Manhattan,Upper East Side,40.77912,-73.95594,United States,US,True,flexible,Private room,2006.0,651.0,130.0,3.0,8.0,6/29/2017,0.21,4.0,1.0,132.0,"Hello there! Please only enter the front door of the building if I have let you in or you have been given the key beforehand.  Please leave the apartment and its contents in the same condition you found it. Please no one in the building or apartment except the registered guests.  This is a strict one.  Thanks for understanding! Please no eating or drinking on the sofa. (Also, please hand wash any dishes used.) Please walk gently in the apartment and observe quiet hours of 8pm-10am. It is an old building and sound transfers easily.  Definitely no smoking and/or any other ""substances"" on the premises. Sorry, none of the alcohol in the apartment is for guest consumption. Thank you for respecting the property and also my furnishings. This helps me offer nice things for consequent guests! Sorry for the litany of rules, but adhering to these will make everyone happy. I like to keep a calm & clean place. Thank you! Paul",,2017-06-29
15894,9779592,Private room in the heart of NY,7751082131,1.0,Yaniv,Manhattan,Hell's Kitchen,40.76205,-73.9888,United States,US,True,flexible,Private room,2007.0,394.0,79.0,5.0,0.0,,,4.0,1.0,105.0,"- Be respectful, we are opening our home to you. - Clean up after yourself. - Be mindful of the neighbors and our busy work schedule. - If you have any questions, please ask, we are very friendly people. - Enjoy your stay!",,
15973,9823224,Double bedroom in West Harlem,82788627018,1.0,Quentin,Manhattan,Harlem,40.80794,-73.9415,United States,US,False,flexible,Private room,2020.0,554.0,111.0,1.0,3.0,6/3/2016,0.08,5.0,1.0,371.0,"Limitation of Liability Waiver: Owner makes no warranties to guest of any kind, whether express or implied, including any implied warranty of merchantability, fitness for a particular purpose or non-infringement. Owner does not warrant, and neither shall be liable, to guest or any third party for any unavailability or inoperability of the booking vendor's services, telecommunications systems or the internet, technical malfunction, computer error, corruption or loss of information, or other injury, damage or disruption of any kind to person or property arising from events beyond the reasonable control of owner. In no event shall owner be liable to guest for any indirect, incidental, consequential, special or exemplary damages, including, but not limited to, loss of profits, loss of savings or loss of business opportunity, even if such damages are foreseeable and whether or not such party has been advised of the possibility thereof. Owner's maximum aggregate liability hereunder shall not",,2016-06-03
16161,9927056,Chic stylish amazing Manhattan room,51447459321,1.0,Tanya,Manhattan,Upper East Side,40.77736,-73.95144,United States,US,True,flexible,Private room,2014.0,256.0,51.0,30.0,79.0,6/18/2019,2.08,5.0,6.0,393.0,,,2019-06-18
16307,10007692,Private BR in a 2 BR Central Park West,58429700205,1.0,Vanessa,Manhattan,Upper West Side,40.79613,-73.96658,United States,US,False,flexible,Private room,2018.0,793.0,159.0,2.0,23.0,2/21/2017,0.62,4.0,1.0,291.0,No smoking. No party. Clean.,,2017-02-21
16320,10014872,Room in loft-like ground Floor apt,89385000515,1.0,Daniel,Manhattan,Harlem,40.81777,-73.9535,United States,US,False,flexible,Private room,2012.0,157.0,31.0,1.0,63.0,6/7/2019,1.74,4.0,2.0,61.0,,,2019-06-07
16361,10037516,"One BR upper east, walk out to garden",56107517237,0.0,Kyle,Manhattan,Upper East Side,40.77626,-73.94693,United States,US,True,flexible,Private room,2004.0,798.0,160.0,1.0,2.0,6/13/2016,0.05,5.0,1.0,-3.0,,,2016-06-13
16508,10118704,Luxury Highrise 1bd -great views -central location,67735269607,1.0,Mirza,Manhattan,Theater District,40.76318,-73.98473,United States,US,True,flexible,Private room,2013.0,338.0,68.0,5.0,0.0,,,5.0,1.0,337.0,"Thank you for your reservation. By placing your reservation online you indicated that you accepted the terms and conditions which have been printed below.  Please review your reservation summary as below - then print, sign and return the agreement to:  (EMAIL HIDDEN) or fax it to (PHONE NUMBER HIDDEN) or  mail it to: Spare Suite, Inc., 119 Braintree Street, Suite 510, Boston, MA 02134, USA Upon receipt, we will send you the welcome document with check in instructions and how to get your keys. ------------------------------------------------------------------------ ------------------------------------------------------------------------ Terms of the Agreement: BOOKING AND REFUND POLICY Once booked your reservation is guaranteed for the check in and check out times and dates specified. All reservations must be paid in advance, in full for the entire period of stay.  All reservations are final, and NON REFUNDABLE UNDER ANY CIRCUMSTANCES.  If you feel you may need to cancel once booked, yo",,
